     3.04           OBSERVATION DATA    M: Mixed            RINEX VERSION / TYPE
sbp2rinex v2.3 (RTKL                    20240214 162435 UTC PGM / RUN BY / DATE 
format: Swift Navigation SBP, option:                       COMMENT             
log: M:\Ardeshir\1-Career\2-Study\1-Ph.D\1-Projects\1-Main\1COMMENT             
                                                            MARKER NAME         
                                                            MARKER NUMBER       
                                                            MARKER TYPE         
                                                            OBSERVER / AGENCY   
                                                            REC # / TYPE / VERS 
                                                            ANT # / TYPE        
  2815213.6424   517185.1188  5680790.1522                  APPROX POSITION XYZ 
        0.0000        0.0000        0.0000                  ANTENNA: DELTA H/E/N
G    8 C1C L1C D1C S1C C2S L2S D2S S2S                      SYS / # / OBS TYPES 
R    8 C1C L1C D1C S1C C2C L2C D2C S2C                      SYS / # / OBS TYPES 
E    8 C1B L1B D1B S1B C7I L7I D7I S7I                      SYS / # / OBS TYPES 
C    8 C2I L2I D2I S2I C7I L7I D7I S7I                      SYS / # / OBS TYPES 
  2023    12    11    10    12   44.0000000     GPS         TIME OF FIRST OBS   
  2023    12    11    10    24   41.0000000     GPS         TIME OF LAST OBS    
G L1C                                                       SYS / PHASE SHIFT   
G L2S  0.00000                                              SYS / PHASE SHIFT   
R L1C                                                       SYS / PHASE SHIFT   
R L2C                                                       SYS / PHASE SHIFT   
E L1B                                                       SYS / PHASE SHIFT   
E L7I                                                       SYS / PHASE SHIFT   
C L2I                                                       SYS / PHASE SHIFT   
C L7I                                                       SYS / PHASE SHIFT   
  8 R04  6 R05  1 R06 -4 R14 -7 R15  0 R21  4 R22 -3 R26 -5 GLONASS SLOT / FRQ #
 C1C    0.000 C1P    0.000 C2C    0.000 C2P    0.000        GLONASS COD/PHS/BIS 
                                                            END OF HEADER       
> 2023 12 11 10 12 44.0000000  0 27       0.000000000000
G30  20853299.380   109584827.3201       -804.719          52.500    20853299.580    85390786.9571       -627.453          48.750  
G07  22361835.680   117512239.2731      -2392.953          48.500    22361833.980    91567976.9181      -1862.906          42.500  
G05  21428468.460   112607369.3091      -1749.852          51.500    21428466.380    87745989.5201      -1363.262          44.500  
G15  22503050.080   118254327.9691       3357.664          42.250    22503060.080    92146277.9411       2615.496          33.500  
G13  20403428.400   107220778.762        1531.367          51.250                                                                  
G22  23379651.560   122860883.695        3320.906          42.500                                                                  
G18  23537292.940   123689307.7731       -424.547          35.500    23537296.060    96381297.5431       -332.680          40.500  
G27  23875751.100   125467926.1603      -1178.938          31.250                                                                  
G20  23250038.220   122179778.160       -3528.863          39.250                                                                  
G14  22286454.200   117116104.727        2728.188          46.750    22286454.320    91259311.047        2126.246          48.250  
R14  19952290.720   106356983.5701      -1799.238          56.250                                                                  
R21  23303000.440   124699081.5661      -3566.523          35.250    23303001.680    96988168.113       -2773.309          41.250  
R15                                                                  20044939.860    83310938.9571       1996.477          48.750  
C07  38941082.060   202776426.9261        918.957          43.250    38941081.700   156799583.2581        709.781          43.250  
C24  25068253.940   130536968.117       -3100.465          46.500                                                                  
C10  39160283.040   203917866.2231       1283.441          44.000    39160286.780   157682225.9651        994.227          41.000  
C32  22270987.980   115970921.6911        514.250          52.000                                                                  
C23  23405584.040   121879051.1911       2526.484          51.500                                                                  
C25  22036179.700   114748169.0391       -469.375          54.250                                                                  
C09  40338202.780   210051594.0311      -1125.020          37.500    40338207.440   162425229.7661       -869.445          41.000  
E07  27392646.920   143949323.324       -2986.680          40.000    27392649.080   110298856.270       -2289.145          34.750  
E27  24675911.800   129672791.3521       1573.309          48.500    24675917.200    99359675.2731       1204.461          49.500  
E12  27322952.260   143583105.3631      -2617.074          39.250    27322956.700   110018212.2541      -2006.465          42.750  
E30  25632695.020   134700734.7621      -1455.082          46.000    25632699.420   103212250.1841      -1116.383          49.000  
E19  24256104.300   127466684.3131       1344.059          45.500    24256106.180    97669272.2191       1028.234          46.250  
E21  27614061.120   145112856.0001       3322.281          31.750    27614070.120   111190404.0121       2544.555          37.000  
E11                                                                  25385334.100   102216203.6451        -70.086          36.000  
> 2023 12 11 10 12 45.0000000  0 27       0.000000000000
G30  20853452.580   109585631.551        -804.945          52.000    20853452.620    85391413.625        -626.223          48.500  
G07  22362290.980   117514631.805       -2392.723          48.500    22362289.360    91569841.250       -1865.043          42.250  
G05  21428801.360   112609119.055       -1749.680          50.750    21428799.920    87747352.949       -1362.852          45.500  
G15  22502411.620   118250969.633        3357.629          42.000    22502421.400    92143661.074        2613.316          33.250  
G13  20403136.840   107219246.621        1530.852          50.750                                                                  
G22  23379019.340   122857561.914        3321.293          42.250                                                                  
G27  23875975.480   125469104.9342      -1179.313          32.000                                                                  
G20  23250709.360   122183305.223       -3525.758          38.250                                                                  
G14  22285934.860   117113375.086        2728.055          46.500    22285934.980    91257184.047        2126.699          48.000  
G18                                                                  23537377.060    96381629.777        -332.254          40.250  
R14  19952628.380   106358782.012       -1798.551          56.250                                                                  
R21  23303665.600   124702646.766       -3563.762          33.500    23303668.700    96990941.070       -2773.555          40.500  
R15                                                                  20044459.280    83308942.617        1994.441          48.750  
C07  38940905.160   202775507.039         920.121          42.750    38940904.760   156798871.934         710.906          42.500  
C24  25068848.920   130540066.625       -3100.484          46.250                                                                  
C10  39160036.260   203916581.012        1284.883          44.250    39160040.060   157681232.164         992.355          40.250  
C32  22270888.940   115970405.785         514.172          52.000                                                                  
C23  23405098.580   121876523.512        2527.332          51.500                                                                  
C25  22036269.820   114748637.672        -468.375          54.250                                                                  
C09  40338418.520   210052718.914       -1125.996          37.000    40338423.240   162426099.590        -871.301          40.000  
E07  27393215.840   143952309.051       -2985.297          40.250    27393215.420   110301143.902       -2289.855          33.500  
E27  24675612.340   129671217.797        1572.719          48.500    24675617.720    99358469.570        1204.766          49.500  
E12  27323451.220   143585722.262       -2618.066          38.250    27323454.640   110020217.449       -2004.250          42.500  
E30  25632971.960   134702189.824       -1456.328          46.250    25632976.420   103213365.098       -1115.891          49.000  
E19  24255848.640   127465339.609        1344.262          45.750    24255850.200    97668241.875        1031.594          46.000  
E11                                                                  25385350.560   102216271.563         -65.938          34.750  
E21                                                                  27613438.340   111187858.906        2541.891          37.000  
> 2023 12 11 10 12 46.0000000  0 26       0.000000000000
G30  20853605.840   109586437.039        -805.688          52.000    20853605.880    85392041.277        -627.676          48.500  
G07  22362746.380   117517025.316       -2394.121          48.500    22362744.620    91571706.328       -1865.641          42.500  
G05  21429134.560   112610870.273       -1751.426          50.500    21429133.520    87748717.535       -1365.137          45.750  
G15  22501772.880   118247612.371        3357.000          42.000    22501783.180    92141045.035        2617.918          33.000  
G13  20402845.580   107217715.809        1529.676          50.750                                                                  
G22  23378387.580   122854241.234        3321.414          42.000                                                                  
G20  23251380.560   122186833.422       -3528.676          38.250                                                                  
G14  22285415.920   117110646.664        2728.383          46.500    22285415.980    91255058.008        2126.004          48.000  
G18                                                                  23537458.500    96381963.027        -333.801          40.250  
R14  19952965.940   106360581.867       -1799.934          56.000                                                                  
R21  23304326.560   124706213.258       -3563.484          32.500    23304334.820    96993714.992       -2773.996          40.000  
R15                                                                  20043979.480    83306947.465        1995.457          48.750  
C07  38940728.440   202774587.914         920.379          42.750    38940728.160   156798161.223         710.680          42.250  
C24  25069443.980   130543165.895       -3098.723          46.250                                                                  
C10  39159789.780   203915296.570        1285.684          44.250    39159792.800   157680238.965         991.676          40.000  
C32  22270790.220   115969891.195         514.332          52.250                                                                  
C23  23404613.220   121873997.047        2526.547          51.500                                                                  
C25  22036360.020   114749107.527        -469.348          54.250                                                                  
C09  40338634.760   210053844.402       -1127.340          37.000    40338639.120   162426969.922        -870.359          39.750  
E07  27393784.120   143955295.563       -2986.176          40.250    27393782.520   110303432.301       -2290.590          32.750  
E27  24675313.180   129669645.418        1572.125          48.250    24675318.600    99357264.758        1204.754          49.500  
E12  27323949.160   143588340.316       -2615.926          38.250    27323952.740   110022223.469       -2006.527          42.250  
E30  25633249.180   134703645.922       -1455.500          46.000    25633253.460   103214480.801       -1116.500          49.000  
E19  24255593.020   127463996.020        1343.891          45.500    24255594.460    97667212.363        1029.320          46.000  
E21  27612798.740   145106231.9771       3323.254          33.500    27612806.920   111185314.582        2543.719          37.250  
E11                                                                  25385367.720   102216340.461         -68.582          34.500  
> 2023 12 11 10 12 47.0000000  0 27       0.000000000000
G30  20853759.100   109587242.918        -806.590          50.500    20853759.260    85392669.238        -626.867          48.500  
G07  22363201.980   117519419.020       -2394.473          47.000    22363200.720    91573571.543       -1865.566          42.500  
G05  21429467.700   112612621.957       -1751.777          49.000    21429467.180    87750082.477       -1364.859          46.000  
G15  22501134.240   118244255.301        3356.855          40.250    22501143.660    92138429.121        2621.047          32.750  
G13  20402554.400   107216185.379        1529.668          49.250                                                                  
G22  23377755.260   122850920.668        3320.402          40.750                                                                  
G20  23252052.260   122190361.730       -3527.484          36.750                                                                  
G14  22284896.760   117107918.527        2727.863          45.000    22284897.040    91252932.191        2125.449          48.000  
G18                                                                  23537540.380    96382296.695        -333.977          40.250  
R14  19953303.760   106362382.355       -1800.762          56.250                                                                  
R15                                                                  20043499.560    83304952.719        1995.098          49.000  
R21                                                                  23305000.720    96996489.176       -2773.410          40.750  
C07  38940551.820   202773668.797         918.762          42.750    38940551.140   156797450.492         710.547          42.250  
C24  25070039.140   130546265.250       -3099.516          46.250                                                                  
C10  39159543.140   203914012.078        1284.219          44.250    39159546.100   157679245.715         993.914          40.000  
C32  22270691.500   115969376.977         513.434          52.250                                                                  
C23  23404128.180   121871470.773        2525.824          51.500                                                                  
C20  25322738.440   131862136.7933       3165.574          33.250                                                                  
C25  22036450.320   114749577.754        -469.922          54.250                                                                  
C09  40338850.700   210054969.762       -1128.000          37.250    40338854.860   162427840.121        -870.906          39.750  
E07  27394352.320   143958281.988       -2988.141          40.500                                                                  
E27  24675013.860   129668073.301        1571.602          48.500    24675019.420    99356060.152        1203.613          49.500  
E12  27324447.720   143590958.473       -2618.113          38.500    27324450.760   110024229.605       -2006.035          42.250  
E30  25633526.080   134705102.289       -1457.563          46.000    25633530.640   103215596.727       -1117.176          49.000  
E19  24255337.420   127462652.566        1342.746          45.750    24255338.800    97666182.969        1030.641          45.750  
E21  27612166.340   145102911.266        3320.156          33.000    27612174.980   111182770.168        2544.688          37.250  
E11                                                                  25385384.500   102216409.672         -69.125          34.500  
> 2023 12 11 10 12 48.0000000  0 28       0.000000000000
G30  20853912.580   109588049.387        -807.766          50.000    20853912.600    85393297.652        -629.102          48.250  
G07  22363657.580   117521813.102       -2394.961          46.500    22363656.140    91575437.070       -1864.281          42.500  
G05  21429801.140   112614374.352       -1754.000          48.500    21429800.940    87751447.980       -1366.059          45.750  
G15  22500495.760   118240898.578        3355.730          40.000    22500505.320    92135813.500        2611.328          32.000  
G13  20402263.240   107214655.547        1527.641          48.750                                                                  
G22  23377123.640   122847600.430        3319.793          40.250                                                                  
G27  23876647.700   125472630.9733      -1181.273          29.750                                                                  
G20  23252723.700   122193890.332       -3530.391          36.000                                                                  
G14  22284377.660   117105190.887        2726.340          44.500    22284377.900    91250806.762        2124.766          48.000  
G18                                                                  23537622.080    96382630.977        -333.309          40.000  
R14  19953641.800   106364183.672       -1803.492          56.250                                                                  
R15                                                                  20043018.800    83302958.570        1992.289          48.750  
R21                                                                  23305668.680    96999263.777       -2775.535          41.000  
C07  38940375.680   202772749.852         916.313          42.750    38940374.820   156796739.922         710.973          42.250  
C24  25070634.300   130549364.848       -3100.094          46.250                                                                  
C10  39159296.380   203912727.781        1282.844          44.250    39159299.260   157678252.598         990.023          40.250  
C32  22270592.880   115968863.344         513.469          52.250                                                                  
C23  23403643.000   121868944.910        2524.438          51.500                                                                  
C20  25322130.800   131858970.7112       3165.363          33.750                                                                  
C25  22036540.740   114750048.555        -471.520          54.250                                                                  
C09  40339066.540   210056095.227       -1126.996          37.250    40339071.580   162428710.375        -870.008          39.750  
E07  27394920.360   143961268.574       -2988.254          40.250    27394918.720   110307974.0861      -2289.434          32.500  
E27  24674714.840   129666501.676        1571.688          48.250    24674720.340    99354855.926        1203.430          49.500  
E12  27324945.780   143593576.984       -2618.078          38.250    27324949.040   110026235.965       -2008.227          42.000  
E30  25633803.460   134706559.137       -1458.941          46.250    25633807.880   103216713.023       -1116.996          49.000  
E19  24255081.540   127461309.508        1342.156          45.750    24255083.320    97665153.863        1028.891          46.000  
E21  27611533.180   145099590.754        3319.832          33.000    27611543.140   111180225.871        2545.008          37.000  
E11                                                                  25385401.740   102216479.270         -71.113          34.250  
> 2023 12 11 10 12 49.0000000  0 28       0.000000000000
G30  20854066.120   109588856.383        -807.270          50.750    20854066.060    85393926.480        -629.789          48.250  
G07  22364113.200   117524207.496       -2394.652          47.250    22364111.920    91577302.840       -1866.719          42.250  
G05  21430134.780   112616127.363       -1753.707          49.250    21430134.620    87752813.961       -1367.512          45.750  
G15  22499856.920   118237542.215        3356.422          40.750    22499866.420    92133198.180        2612.531          32.500  
G13  20401972.140   107213126.234        1528.805          49.500                                                                  
G22  23376492.100   122844280.477        3321.680          41.500                                                                  
G27  23876873.040   125473813.9103      -1183.059          31.000                                                                  
G20  23253395.180   122197419.203       -3529.219          36.750                                                                  
G14  22283858.700   117102463.668        2725.684          45.000    22283858.900    91248681.648        2124.199          48.000  
G18                                                                  23537703.980    96382965.746        -335.152          39.750  
R14  19953980.060   106365985.746       -1802.488          56.250                                                                  
R15                                                                  20042539.580    83300964.949        1992.773          48.750  
R21                                                                  23306335.300    97002038.758       -2774.914          40.750  
C07  38940198.980   202771831.074         919.324          42.750    38940198.580   156796029.449         708.863          42.250  
C24  25071229.680   130552464.633       -3099.105          46.250                                                                  
C10  39159049.720   203911443.574        1284.230          44.250    39159052.660   157677259.566         995.164          40.250  
C32  22270494.260   115968350.211         513.035          52.250                                                                  
C23  23403157.980   121866419.387        2525.027          51.500                                                                  
C20  25321523.320   131855804.7272       3163.348          34.000                                                                  
C25  22036631.180   114750519.875        -471.246          54.250                                                                  
C09  40339283.040   210057220.668       -1124.340          37.250    40339287.840   162429580.625        -870.160          40.000  
E07  27395488.780   143964255.223       -2987.910          40.250                                                                  
E27  24674415.720   129664930.477        1571.602          48.250    24674421.400    99353652.016        1204.664          49.500  
E12  27325444.220   143596195.742       -2619.676          38.750    27325447.360   110028242.547       -2007.453          42.250  
E30  25634080.720   134708016.410       -1457.992          46.250    25634085.200   103217829.625       -1116.492          49.250  
E19  24254826.180   127459966.723        1342.625          45.500    24254827.700    97664124.977        1029.867          46.000  
E21  27610901.860   145096270.230        3317.473          33.250    27610911.320   111177681.648        2545.191          37.000  
E11                                                                  25385419.100   102216549.273         -71.098          34.000  
> 2023 12 11 10 12 50.0000000  0 28       0.000000000000
G30  20854219.720   109589664.285        -807.625          50.750    20854219.800    85394556.012        -629.078          48.250  
G07  22364569.060   117526602.594       -2394.414          47.500    22364567.620    91579169.129       -1867.488          42.250  
G05  21430468.360   112617881.383       -1754.699          49.250    21430468.520    87754180.727       -1367.387          46.000  
G15  22499218.400   118234186.516        3354.703          41.250    22499227.500    92130583.332        2615.746          31.500  
G13  20401681.240   107211597.836        1528.957          49.750                                                                  
G22  23375860.360   122840961.137        3320.059          41.250                                                                  
G27  23877097.600   125474997.500       -1183.121          31.000                                                                  
G20  23254066.500   122200948.691       -3528.637          37.000                                                                  
G14  22283339.880   117099737.258        2725.809          45.250    22283339.980    91246557.172        2123.957          48.000  
G18                                                                  23537785.540    96383301.352        -334.648          39.750  
R14  19954318.300   106367788.945       -1804.039          56.500                                                                  
R15                                                                  20042059.840    83298972.188        1992.582          49.000  
R21                                                                  23307002.540    97004814.395       -2776.359          41.000  
C07  38940022.660   202770912.824         919.824          42.750    38940022.140   156795319.398         709.172          42.250  
C24  25071824.960   130555564.961       -3099.875          46.500                                                                  
C10  39158803.440   203910159.816        1283.699          44.250    39158806.140   157676266.895         992.086          40.250  
C32  22270395.840   115967837.984         511.348          52.250                                                                  
C23  23402673.180   121863894.594        2524.879          51.750                                                                  
C20  25320915.320   131852639.3402       3166.953          34.250                                                                  
C25  22036721.780   114750992.074        -473.273          54.250                                                                  
C09  40339498.760   210058346.445       -1125.129          37.250    40339504.020   162430451.172        -869.941          40.250  
E07  27396057.220   143967242.332       -2988.855          40.250                                                                  
E27  24674117.060   129663360.063        1569.480          48.250    24674122.600    99352448.723        1203.398          49.500  
E12  27325942.880   143598815.152       -2618.648          38.500    27325945.820   110030249.633       -2007.246          42.000  
E30  25634358.420   134709474.461       -1459.281          46.250    25634362.680   103218946.836       -1117.453          49.250  
E19  24254571.020   127458624.645        1342.680          45.750    24254572.300    97663096.617        1027.551          46.000  
E21  27610270.980   145092950.223        3319.109          33.250    27610279.580   111175137.688        2542.047          37.500  
E11                                                                  25385436.820   102216619.977         -70.098          34.000  
> 2023 12 11 10 12 51.0000000  0 28       0.000000000000
G30  20854373.480   109590472.285        -809.383          50.750    20854373.420    85395185.621        -630.012          48.750  
G07  22365024.940   117528997.598       -2395.203          47.500    22365023.380    91581035.375       -1866.504          42.750  
G05  21430802.100   112619635.590       -1754.086          49.000    21430802.380    87755547.645       -1368.004          46.250  
G15  22498579.920   118230830.715        3356.008          41.000    22498587.500    92127968.410        2613.504          31.500  
G13  20401390.260   107210069.543        1527.535          49.250                                                                  
G22  23375228.700   122837641.637        3319.469          41.000                                                                  
G27  23877322.600   125476180.781       -1185.609          30.750                                                                  
G20  23254737.940   122204477.965       -3531.180          37.000                                                                  
G14  22282820.780   117097010.859        2725.699          45.000    22282821.360    91244432.711        2124.133          48.250  
G18                                                                  23537867.780    96383637.125        -337.551          40.250  
R14  19954656.840   106369592.430       -1804.359          56.500                                                                  
R15                                                                  20041580.740    83296979.613        1991.633          49.000  
R21                                                                  23307669.960    97007590.113       -2775.859          40.750  
C07  38939846.480   202769994.238         918.266          42.750    38939845.760   156794609.121         709.609          42.250  
C24  25072420.280   130558665.059       -3100.820          46.500                                                                  
C10  39158556.620   203908875.750        1283.813          44.250    39158559.420   157675273.984         992.961          40.250  
C32  22270297.460   115967325.840         510.527          52.250                                                                  
C23  23402188.320   121861369.719        2523.645          51.750                                                                  
C20  25320307.780   131849473.7702       3165.426          34.500                                                                  
C25  22036812.500   114751464.352        -472.508          54.250                                                                  
C09  40339715.140   210059471.805       -1125.590          37.000    40339719.980   162431321.367        -867.508          40.250  
E07  27396626.000   143970229.070       -2986.898          40.250                                                                  
E27  24673817.900   129661789.652        1570.973          48.250    24673823.760    99351245.414        1201.852          49.500  
E12  27326440.920   143601434.434       -2620.512          38.500    27326444.200   110032256.613       -2006.008          42.000  
E30  25634635.720   134710932.484       -1458.020          46.250    25634640.140   103220064.031       -1116.781          49.250  
E19  24254315.440   127457282.418        1341.770          45.500    24254316.900    97662068.172        1028.035          46.000  
E21  27609638.100   145089629.766        3316.281          33.250    27609647.760   111172593.488        2541.391          37.500  
E11                                                                  25385454.260   102216690.793         -71.133          34.250  
> 2023 12 11 10 12 52.0000000  0 28       0.000000000000
G30  20854527.280   109591280.770        -809.332          51.000    20854527.300    85395815.609        -628.617          48.500  
G07  22365480.860   117531392.875       -2395.129          47.750    22365479.360    91582901.801       -1866.336          42.750  
G05  21431135.900   112621390.391       -1756.480          49.250    21431136.360    87756915.012       -1367.574          46.500  
G15  22497941.200   118227475.188        3355.391          41.500    22497948.840    92125353.777        2616.375          31.000  
G13  20401099.520   107208541.754        1527.824          49.750                                                                  
G22  23374597.000   122834322.352        3317.586          41.250                                                                  
G27  23877548.340   125477364.746       -1184.004          31.500                                                                  
G20  23255409.420   122208007.480       -3532.547          37.250                                                                  
G14  22282301.800   117094284.840        2726.277          45.250    22282302.680    91242308.543        2124.395          48.250  
G18                                                                  23537949.840    96383973.414        -336.828          40.000  
R14  19954995.360   106371396.645       -1805.164          56.500                                                                  
R15                                                                  20041101.480    83294987.547        1991.125          48.750  
R21                                                                  23308336.820    97010366.156       -2775.586          40.500  
C07  38939669.720   202769075.793         917.293          42.750    38939669.100   156793898.891         709.188          42.250  
C24  25073015.600   130561765.305       -3100.367          46.250                                                                  
C10  39158309.860   203907591.789        1285.047          44.250    39158312.520   157674281.133         993.000          40.000  
C32  22270199.060   115966814.191         510.648          52.000                                                                  
C23  23401703.480   121858845.176        2524.281          51.750                                                                  
C20  25319699.300   131846308.738        3165.563          33.750                                                                  
C25  22036903.260   114751937.117        -473.160          54.250                                                                  
C09  40339931.200   210060597.117       -1125.379          36.750    40339936.140   162432191.523        -869.836          40.250  
E07  27397194.180   143973215.848       -2986.676          40.000                                                                  
E27  24673518.980   129660219.605        1569.223          48.250    24673524.920    99350042.395        1202.297          49.500  
E12  27326939.300   143604053.941       -2620.508          38.250    27326942.600   110034263.773       -2008.902          42.000  
E30  25634913.320   134712390.918       -1459.172          46.250    25634917.640   103221181.512       -1117.609          49.000  
E19  24254059.940   127455940.488        1341.332          45.500    24254061.620    97661039.922        1028.418          45.750  
E21  27609006.280   145086309.379        3321.613          33.000    27609015.820   111170049.316        2544.328          37.500  
E11                                                                  25385471.900   102216761.934         -74.754          34.000  
> 2023 12 11 10 12 53.0000000  0 28       0.000000000000
G30  20854681.180   109592089.395        -808.727          51.000    20854681.300    85396445.707        -631.520          48.750  
G07  22365936.580   117533788.086       -2396.148          47.750    22365935.420    91584768.219       -1867.656          42.750  
G05  21431469.800   112623145.418       -1756.691          49.500    21431470.360    87758282.574       -1370.977          46.500  
G15  22497302.980   118224119.625        3354.457          41.500    22497308.740    92122724.9881       2615.602          30.250  
G13  20400808.800   107207014.090        1526.781          49.750                                                                  
G22  23373965.480   122831002.957        3320.535          41.500                                                                  
G27  23877774.120   125478548.934       -1185.234          31.500                                                                  
G20  23256080.880   122211536.879       -3529.766          37.250                                                                  
G14  22281783.260   117091558.863        2724.039          45.500    22281783.940    91240184.402        2123.762          48.250  
G18                                                                  23538032.200    96384309.934        -335.738          40.000  
R14  19955333.800   106373201.207       -1805.793          56.500                                                                  
R15                                                                  20040621.820    83292995.699        1990.711          49.000  
R21                                                                  23309004.560    97013142.246       -2776.832          41.500  
C07  38939493.240   202768157.082         919.176          42.500    38939492.680   156793188.484         710.504          42.000  
C24  25073610.960   130564865.336       -3099.172          46.250                                                                  
C10  39158063.080   203906307.535        1283.297          44.250    39158066.040   157673288.051         994.250          39.750  
C32  22270100.720   115966302.660         510.340          52.000                                                                  
C23  23401218.640   121856320.566        2523.582          51.750                                                                  
C20  25319092.420   131843143.070        3163.988          34.750                                                                  
C25  22036994.000   114752409.996        -473.676          54.250                                                                  
C09  40340147.260   210061722.039       -1125.938          36.750    40340152.540   162433061.375        -872.043          40.000  
E07  27397762.720   143976202.328       -2986.566          40.250    27397760.200   110319414.773       -2287.262          32.500  
E27  24673220.340   129658649.602        1569.367          48.250    24673226.200    99348839.414        1201.523          49.500  
E12  27327437.540   143606673.328       -2620.891          38.500    27327441.020   110036270.867       -2006.949          41.750  
E30  25635191.040   134713849.340       -1459.055          46.500    25635195.080   103222299.016       -1117.473          49.250  
E19  24253804.700   127454598.453        1342.000          45.500    24253806.180    97660011.625        1028.105          46.000  
E21  27608374.800   145082988.723        3319.918          33.250    27608383.900   111167504.883        2545.211          37.250  
E11                                                                  25385489.180   102216833.141         -70.836          33.750  
> 2023 12 11 10 12 54.0000000  0 27       0.000000000000
G30  20854834.980   109592898.410        -811.148          51.250    20854835.420    85397076.109        -632.051          48.500  
G07  22366392.500   117536183.465       -2396.859          47.750    22366391.340    91586634.734       -1868.387          42.750  
G05  21431803.920   112624900.953       -1755.715          49.500    21431804.340    87759650.523       -1370.027          46.250  
G15  22496664.300   118220764.191        3354.598          41.250    22496669.860    92120106.3791       2609.891          30.250  
G13  20400518.360   107205486.832        1525.914          49.750                                                                  
G22  23373333.600   122827683.684        3316.305          41.500                                                                  
G27  23878000.300   125479733.676       -1187.441          32.000                                                                  
G20  23256752.320   122215066.352       -3530.375          37.500                                                                  
G14  22281264.640   117088833.176        2724.887          45.500    22281265.120    91238060.496        2123.211          48.000  
G18                                                                  23538114.780    96384646.848        -337.996          40.000  
R14  19955672.460   106375006.371       -1806.301          56.250                                                                  
R21  23309658.180   124734733.1993      -3571.539          27.500    23309670.720    97015918.645       -2776.793          41.750  
R15                                                                  20040142.280    83291004.281        1989.934          49.000  
C07  38939317.220   202767238.371         918.574          42.500    38939316.480   156792478.082         710.125          42.000  
C24  25074206.320   130567965.402       -3099.867          46.250                                                                  
C10  39157816.760   203905023.238        1283.293          44.250    39157819.260   157672294.957         991.164          39.750  
C32  22270002.640   115965791.512         510.227          52.000                                                                  
C23  23400733.820   121853796.172        2523.008          51.500                                                                  
C20  25318484.500   131839977.355        3165.367          34.250                                                                  
C25  22037084.920   114752883.254        -474.430          54.250                                                                  
C09  40340362.920   210062846.836       -1125.875          37.250    40340368.360   162433931.137        -871.129          39.750  
E07  27398330.420   143979188.727       -2987.145          40.000                                                                  
E27  24672921.640   129657079.875        1567.285          48.250    24672927.440    99347636.633        1202.215          49.500  
E12  27327936.200   143609292.871       -2621.426          38.250    27327939.400   110038278.020       -2007.305          42.000  
E30  25635468.700   134715308.051       -1460.336          46.250    25635472.760   103223416.727       -1117.688          49.000  
E19  24253549.440   127453256.586        1341.047          45.250    24253550.820    97658983.434        1026.031          45.750  
E21  27607742.360   145079667.980        3318.559          33.000    27607752.100   111164960.406        2545.500          37.250  
> 2023 12 11 10 12 55.0000000  0 27       0.000000000000
G30  20854989.120   109593708.184        -810.879          51.750    20854989.640    85397707.094        -632.117          48.250  
G07  22366848.400   117538579.406       -2396.348          48.250    22366846.940    91588501.703       -1865.668          42.500  
G05  21432138.020   112626657.348       -1757.012          50.250    21432138.540    87761019.137       -1369.852          46.250  
G15  22496025.960   118217409.352        3354.492          42.250    22496029.100    92117480.8983       2618.020          29.000  
G13  20400227.740   107203960.332        1525.902          50.250                                                                  
G22  23372701.960   122824364.910        3320.902          42.250                                                                  
G27  23878226.240   125480919.383       -1185.473          32.750                                                                  
G20  23257424.260   122218596.324       -3530.422          38.000                                                                  
G14  22280746.040   117086108.168        2725.129          46.250    22280746.420    91235937.109        2122.980          48.000  
G18                                                                  23538197.080    96384984.477        -339.438          40.250  
R14  19956011.260   106376812.520       -1807.320          56.250                                                                  
R15                                                                  20039663.820    83289013.594        1990.516          49.000  
R21                                                                  23310338.920    97018695.586       -2777.855          41.500  
C07  38939140.760   202766320.008         918.113          42.500    38939140.200   156791767.957         709.566          42.000  
C24  25074802.120   130571065.910       -3099.859          46.250                                                                  
C10  39157570.200   203903739.297        1281.938          44.250    39157572.540   157671302.117         992.914          39.500  
C32  22269904.500   115965281.125         509.535          52.000                                                                  
C23  23400249.140   121851272.387        2522.758          51.500                                                                  
C20  25317877.540   131836812.125        3163.109          34.250                                                                  
C25  22037175.940   114753357.258        -475.773          54.250                                                                  
C09  40340579.420   210063971.867       -1126.355          37.000    40340584.680   162434801.066        -867.176          39.750  
E07  27398899.040   143982175.434       -2988.898          40.000                                                                  
E27  24672622.960   129655510.820        1566.672          48.250    24672628.900    99346434.359        1202.695          49.250  
E12  27328435.160   143611912.902       -2620.605          38.250    27328438.100   110040285.582       -2007.457          41.750  
E30  25635746.500   134716767.406       -1458.836          46.250    25635750.440   103224534.938       -1117.875          48.750  
E19  24253294.080   127451915.281        1341.180          45.250    24253295.540    97657955.699        1027.867          45.750  
E21  27607110.740   145076347.504        3318.590          33.000    27607120.140   111162416.164        2541.129          37.500  
> 2023 12 11 10 12 56.0000000  0 28       0.000000000000
G30  20855143.420   109594518.848        -810.586          52.500    20855143.860    85398338.793        -631.727          48.500  
G07  22367304.600   117540976.020       -2396.520          49.000    22367303.040    91590369.188       -1867.992          42.500  
G05  21432472.520   112628414.738       -1757.383          50.750    21432473.060    87762388.527       -1370.582          46.250  
G15  22495387.780   118214055.168        3353.941          42.750    22495389.020    92114861.9773       2613.680          29.250  
G13  20399937.500   107202434.719        1526.023          51.000                                                                  
G22  23372070.340   122821046.758        3317.254          42.500                                                                  
G27  23878451.360   125482106.004       -1188.328          33.500                                                                  
G20  23258095.800   122222126.922       -3532.355          38.250                                                                  
G14  22280227.740   117083383.941        2723.539          46.750    22280228.020    91233814.348        2122.344          47.750  
G18                                                                  23538280.060    96385322.926        -338.211          40.500  
R14  19956350.240   106378619.785       -1807.926          56.250                                                                  
R15                                                                  20039185.140    83287023.730        1989.410          49.000  
R21                                                                  23311005.840    97021473.227       -2777.648          41.500  
C07  38938964.660   202765402.172         917.086          42.500    38938963.680   156791058.227         709.098          42.250  
C24  25075397.680   130574166.945       -3100.020          46.250                                                                  
C10  39157323.620   203902455.797        1283.500          44.000    39157326.100   157670309.648         991.777          39.750  
C32  22269806.680   115964771.609         508.785          52.000                                                                  
C23  23399764.660   121848749.289        2523.059          51.500                                                                  
C20  25317269.400   131833647.379        3165.129          34.000                                                                  
C25  22037267.140   114753832.129        -475.664          54.250                                                                  
C09  40340794.760   210065097.207       -1126.828          37.000    40340800.640   162435671.285        -870.949          39.750  
E07  27399467.180   143985162.582       -2987.574          39.750                                                                  
E27  24672324.440   129653942.539        1567.504          48.000    24672330.420    99345232.699        1200.438          49.250  
E12  27328933.420   143614533.570       -2621.043          38.250    27328936.820   110042293.645       -2006.844          41.500  
E30  25636024.360   134718227.543       -1460.547          46.250    25636028.280   103225653.738       -1119.410          48.750  
E19  24253038.820   127450574.641        1341.773          45.250    24253040.440    97656928.430        1028.785          45.500  
E21  27606479.480   145073027.441        3319.027          33.500    27606488.500   111159872.234        2542.059          37.500  
E11                                                                  25385542.820   102217050.6171        -71.316          33.250  
> 2023 12 11 10 12 57.0000000  0 27       0.000000000000
G30  20855297.880   109595330.285        -811.578          52.500    20855298.220    85398971.070        -632.965          48.250  
G07  22367760.620   117543373.168       -2398.379          49.250    22367759.060    91592237.098       -1870.445          42.250  
G05  21432807.280   112630172.965       -1758.992          51.000    21432807.540    87763758.582       -1371.648          46.250  
G15  22494749.760   118210701.523        3354.281          43.250    22494750.040    92112245.8953       2610.301          29.000  
G13  20399647.160   107200909.871        1524.512          51.250                                                                  
G22  23371438.980   122817729.098        3315.816          42.750                                                                  
G27  23878677.020   125483293.613       -1187.078          33.750                                                                  
G20  23258767.520   122225657.992       -3532.340          38.500                                                                  
G14  22279709.440   117080660.387        2723.570          47.250    22279709.720    91231692.082        2121.105          47.750  
G18                                                                  23538363.560    96385662.066        -341.031          40.500  
R14  19956689.580   106380428.039       -1808.836          56.500                                                                  
R15                                                                  20038706.180    83285034.570        1989.613          49.000  
R21                                                                  23311675.100    97024251.395       -2778.145          41.750  
C07  38938788.520   202764484.672         917.039          42.500    38938787.440   156790348.797         710.660          42.750  
C24  25075993.060   130577268.395       -3102.707          46.500                                                                  
C10  39157077.380   203901172.617        1282.016          44.000    39157079.540   157669317.430         991.195          40.250  
C32  22269708.940   115964262.832         507.641          52.000                                                                  
C23  23399280.220   121846226.770        2522.047          51.750                                                                  
C20  25316661.700   131830482.984        3163.641          34.250                                                                  
C25  22037358.560   114754307.738        -475.918          54.250                                                                  
C09  40341011.040   210066222.801       -1127.473          37.000    40341017.240   162436541.656        -871.203          40.500  
E07  27400036.000   143988150.047       -2987.840          39.750                                                                  
E27  24672026.200   129652374.902        1566.906          48.250    24672032.120    99344031.520        1200.965          49.250  
E12  27329432.260   143617154.781       -2621.480          38.250    27329435.560   110044302.078       -2008.375          41.750  
E30  25636302.400   134719688.309       -1461.156          46.250    25636306.240   103226773.027       -1119.742          48.750  
E19  24252783.860   127449234.516        1340.434          45.500    24252785.400    97655901.605        1024.973          45.750  
E21  27605847.440   145069707.668        3319.164          33.500    27605856.740   111157328.535        2542.910          37.500  
> 2023 12 11 10 12 58.0000000  0 28       0.000000000000
G30  20855452.320   109596141.734        -811.496          52.500    20855452.620    85399603.379        -631.680          48.500  
G07  22368216.920   117545770.152       -2396.844          49.000    22368215.740    91594104.863       -1869.223          42.500  
G05  21433141.960   112631931.332       -1759.102          51.000    21433142.020    87765128.727       -1372.414          46.250  
G15  22494111.660   118207347.723        3352.348          43.000    22494111.360    92109629.3913       2609.027          28.500  
G13  20399357.020   107199385.063        1524.496          51.000                                                                  
G22  23370807.760   122814411.215        3317.922          42.500                                                                  
G27  23878903.940   125484481.371       -1188.480          34.000                                                                  
G20  23259439.420   122229188.844       -3531.242          38.250                                                                  
G14  22279191.320   117077936.746        2723.156          47.000    22279191.420    91229569.770        2122.375          48.000  
G18                                                                  23538446.580    96386001.324        -339.578          41.000  
R14  19957028.980   106382236.523       -1809.227          56.250                                                                  
R21  23312328.840   124749002.7072      -3569.465          28.500    23312341.800    97027029.531       -2780.453          41.000  
R15                                                                  20038227.520    83283045.535        1987.953          49.000  
C07  38938612.000   202763566.813         917.258          42.500    38938611.200   156789639.031         707.605          42.250  
C24  25076588.560   130580369.516       -3103.414          46.250                                                                  
C10  39156830.940   203899889.094        1283.813          43.750    39156833.040   157668324.926         993.340          40.000  
C32  22269611.200   115963754.086         508.277          52.000                                                                  
C23  23398795.920   121843704.105        2522.375          51.500                                                                  
C20  25316054.040   131827318.367        3165.250          34.750                                                                  
C25  22037449.940   114754783.363        -476.422          54.000                                                                  
C09  40341227.940   210067347.848       -1126.781          37.000    40341232.840   162437411.652        -869.992          40.250  
E07  27400604.440   143991137.035       -2989.234          40.000                                                                  
E27  24671727.720   129650807.191        1566.844          48.250    24671733.780    99342830.285        1200.023          49.250  
E12  27329931.960   143619775.738       -2621.934          38.000    27329934.220   110046310.328       -2009.227          41.500  
E30  25636580.460   134721148.992       -1460.656          46.250    25636584.240   103227892.246       -1121.289          48.750  
E19  24252528.600   127447894.191        1340.191          45.500    24252530.380    97654874.590        1026.566          45.750  
E21  27605215.720   145066387.469        3318.363          33.250    27605224.920   111154784.512        2544.000          37.750  
E11                                                                  25385579.600   102217195.3751        -73.379          33.250  
> 2023 12 11 10 12 59.0000000  0 29       0.000000000000
G30  20855606.760   109596953.801        -812.898          52.000    20855607.080    85400236.168        -632.926          48.500  
G07  22368673.060   117548167.523       -2397.504          48.500    22368671.880    91595972.969       -1867.504          42.250  
G05  21433476.720   112633690.414       -1760.277          50.500    21433476.800    87766499.469       -1369.410          46.500  
G15  22493473.800   118203994.344        3353.301          43.250    22493471.740    92107009.4803       2614.063          29.250  
G13  20399066.980   107197860.871        1524.477          50.500                                                                  
G22  23370176.400   122811093.672        3317.363          42.250                                                                  
G27  23879130.140   125485669.922       -1187.820          33.750                                                                  
G20  23260111.460   122232719.980       -3532.605          37.750                                                                  
G14  22278673.140   117075213.648        2722.711          46.750    22278673.380    91227447.879        2120.105          48.250  
G18                                                                  23538529.660    96386341.191        -341.598          41.000  
R15  20037744.440   107075668.5161       2556.008          56.500    20037748.380    83281057.145        1987.086          48.750  
R14  19957368.280   106384045.840       -1810.023          56.500                                                                  
R05  19223827.580   102762413.4451       -832.074          54.750    19223832.120    79926311.7341       -647.230          48.250  
R21  23312994.320   124752585.0943      -3574.527          30.500    23313008.220    97029808.121       -2779.547          40.750  
C07  38938435.840   202762649.211         916.172          42.500    38938435.140   156788929.484         711.297          42.250  
C24  25077184.380   130583470.926       -3103.023          46.250                                                                  
C10  39156584.240   203898605.758        1283.785          43.750    39156586.520   157667332.566         990.609          39.750  
C32  22269513.700   115963245.945         507.371          51.750                                                                  
C23  23398311.640   121841181.891        2521.797          51.500                                                                  
C20  25315447.120   131824153.914        3161.223          34.250                                                                  
C25  22037541.460   114755259.590        -476.809          54.000                                                                  
C09  40341443.800   210068473.039       -1128.738          36.750    40341448.960   162438281.664        -869.598          40.250  
E07  27401172.860   143994124.270       -2986.918          39.500    27401170.460   110333146.1451      -2289.613          32.750  
E27  24671429.680   129649240.000        1566.813          48.250    24671435.540    99341629.453        1200.773          49.250  
E12  27330430.140   143622397.063       -2621.410          38.750    27330433.000   110048318.887       -2008.691          42.000  
E30  25636858.580   134722610.188       -1461.645          46.250    25636862.240   103229011.859       -1120.863          48.750  
E19  24252273.760   127446554.297        1340.223          45.500    24252275.380    97653847.918        1025.785          45.500  
E21  27604583.080   145063067.531        3321.848          33.500    27604593.040   111152240.609        2541.527          37.000  
E11                                                                  25385597.980   102217269.242         -74.152          33.750  
> 2023 12 11 10 13 00.0000000  0 29       0.000000000000
G30  20855761.300   109597765.895        -813.793          51.500    20855761.820    85400868.961        -633.242          48.750  
G07  22369129.180   117550564.723       -2398.344          48.250    22369127.680    91597840.914       -1869.281          42.000  
G05  21433811.480   112635449.617       -1759.676          50.250    21433811.420    87767870.266       -1372.234          46.750  
G15  22492836.000   118200640.750        3352.039          43.000    22492832.820    92104394.2543       2608.410          28.500  
G13  20398776.900   107196336.699        1523.125          50.250                                                                  
G22  23369545.200   122807775.910        3315.930          42.250                                                                  
G27  23879356.600   125486858.570       -1189.652          33.500                                                                  
G20  23260783.040   122236250.906       -3531.918          37.500                                                                  
G14  22278155.000   117072490.477        2722.148          46.500    22278155.160    91225325.918        2120.570          48.000  
G18                                                                  23538613.040    96386681.219        -341.695          41.000  
R15  20037266.040   107073112.215        2555.313          56.500    20037270.140    83279068.898        1987.734          49.000  
R14  19957708.300   106385855.402       -1810.969          56.500                                                                  
R05  19223983.500   102763245.309        -833.727          55.000    19223987.580    79926958.750        -648.012          48.500  
R21  23313662.340   124756156.5393      -3575.230          30.500    23313675.520    97032586.680       -2780.473          41.500  
C07  38938259.740   202761731.246         917.496          43.000    38938258.340   156788219.656         709.520          41.750  
C24  25077779.840   130586572.020       -3103.445          46.500                                                                  
C10  39156337.780   203897322.051        1282.484          44.000    39156339.500   157666339.918         991.637          39.000  
C32  22269416.080   115962737.820         507.137          51.750                                                                  
C23  23397827.220   121838659.508        2521.758          51.750                                                                  
C20  25314839.000   131820989.207        3165.539          34.750                                                                  
C25  22037632.900   114755735.848        -477.027          54.250                                                                  
C09  40341659.540   210069597.723       -1125.793          36.750    40341664.900   162439151.336        -871.469          40.000  
E07  27401741.500   143997111.043       -2985.281          39.750    27401739.100   110335434.719       -2288.973          33.000  
E27  24671131.480   129647672.727        1565.648          48.250    24671137.380    99340428.551        1200.320          49.250  
E12  27330928.840   143625018.133       -2621.207          38.500    27330931.800   110050327.254       -2008.051          41.500  
E30  25637136.660   134724071.289       -1461.641          46.500    25637140.260   103230131.406       -1120.652          48.750  
E19  24252018.840   127445214.195        1339.602          45.500    24252020.360    97652821.090        1026.625          45.750  
E21  27603952.700   145059747.055        3321.145          33.500    27603961.180   111149696.348        2542.164          37.500  
E11                                                                  25385616.080   102217343.094         -74.039          33.250  
> 2023 12 11 10 13 01.0000000  0 29       0.000000000000
G30  20855916.260   109598579.699        -814.613          51.500    20855916.740    85401503.086        -633.941          48.500  
G07  22369585.440   117552963.402       -2398.629          48.250    22369583.820    91599710.020       -1866.645          42.250  
G05  21434146.600   112637210.625       -1760.027          50.000    21434146.460    87769242.469       -1372.957          46.750  
G15  22492197.940   118197288.676        3351.246          42.750    22492193.460    92101775.1763       2611.379          27.250  
G13  20398487.100   107194814.234        1521.996          50.000                                                                  
G22  23368914.100   122804459.578        3316.879          41.750                                                                  
G27  23879582.920   125488049.109       -1191.133          33.750                                                                  
G20  23261454.960   122239783.242       -3531.121          37.500                                                                  
G14  22277637.300   117069768.898        2720.598          46.750    22277637.240    91223205.211        2120.516          48.250  
G18                                                                  23538696.300    96387022.633        -343.617          41.000  
R15  20036788.120   107070557.805        2553.414          56.250    20036792.060    83277082.129        1986.594          48.750  
R14  19958048.200   106387666.891       -1812.621          56.500                                                                  
R05  19224139.520   102764079.125        -834.996          55.000    19224143.720    79927607.277        -647.766          48.500  
R21  23314331.280   124759737.6212      -3575.047          32.000    23314343.840    97035366.582       -2779.977          40.750  
C07  38938083.500   202760814.551         916.379          42.750    38938082.500   156787510.805         708.387          41.250  
C24  25078375.800   130589674.473       -3104.109          46.250                                                                  
C10  39156091.820   203896039.590        1284.559          44.000    39156092.700   157665348.254         992.016          38.750  
C32  22269318.800   115962231.387         505.637          51.500                                                                  
C23  23397343.140   121836138.648        2519.895          51.500                                                                  
C20  25314231.380   131817825.824        3161.551          35.000                                                                  
C25  22037724.620   114756213.754        -478.813          53.750                                                                  
C09  40341874.860   210070723.531       -1125.695          36.750    40341881.380   162440021.906        -871.320          40.000  
E07  27402309.680   144000099.047       -2987.844          39.250                                                                  
E27  24670833.580   129646107.039        1565.492          48.500    24670839.480    99339228.871        1200.594          49.250  
E12  27331428.180   143627640.715       -2624.395          39.000    27331430.780   110052336.750       -2010.656          41.750  
E30  25637415.100   134725533.969       -1463.441          46.500    25637418.640   103231252.156       -1121.980          48.750  
E19  24251764.400   127443875.598        1338.188          45.750    24251765.640    97651795.398        1025.559          45.750  
E11                                                                  25385635.140   102217418.266         -76.707          33.500  
E21                                                                  27603329.540   111147153.047        2540.813          37.750  
> 2023 12 11 10 13 02.0000000  0 29       0.000000000000
G30  20856071.020   109599393.488        -813.977          51.250    20856071.680    85402137.215        -634.738          48.750  
G07  22370041.960   117555361.867       -2399.652          47.750    22370040.260    91601578.941       -1870.594          42.000  
G05  21434481.680   112638971.719       -1762.160          50.000    21434481.320    87770614.754       -1372.797          46.750  
G15  22491560.020   118193936.387        3352.023          42.500    22491555.260    92099163.0513       2611.789          28.250  
G13  20398197.420   107193291.770        1521.676          49.750                                                                  
G22  23368282.400   122801142.977        3314.125          41.500                                                                  
G27  23879810.060   125489239.801       -1191.344          32.750                                                                  
G20  23262127.520   122243315.313       -3532.141          37.000                                                                  
G14  22277119.640   117067047.223        2720.613          46.500    22277119.380    91221084.422        2120.160          48.250  
G18                                                                  23538779.420    96387364.207        -343.840          41.250  
R15  20036310.020   107068003.531        2552.918          56.500    20036313.840    83275095.473        1986.117          49.000  
R14  19958387.980   106389478.598       -1812.574          56.500                                                                  
R05  19224295.440   102764913.160        -835.008          55.000    19224299.620    79928255.957        -649.855          48.500  
R21  23314998.740   124763312.270       -3574.324          34.000    23315011.820    97038146.449       -2781.445          40.500  
C07  38937907.320   202759897.520         915.598          42.500    38937906.100   156786801.695         710.090          41.250  
C24  25078971.640   130592776.582       -3102.828          46.250                                                                  
C10  39155845.020   203894756.727        1282.027          43.750    39155846.440   157664356.262         994.379          38.750  
C32  22269221.580   115961724.934         505.535          51.500                                                                  
C23  23396858.900   121833617.609        2521.035          51.500                                                                  
C20  25313624.060   131814662.070        3161.105          35.250                                                                  
C25  22037816.440   114756691.660        -478.992          54.000                                                                  
C09  40342091.220   210071848.840       -1122.457          36.250    40342097.120   162440892.059        -868.582          39.750  
E07  27402878.440   144003086.598       -2987.625          39.250                                                                  
E27  24670535.640   129644541.238        1564.188          48.250    24670541.520    99338029.109        1198.566          49.500  
E12  27331926.440   143630263.023       -2623.906          38.250    27331929.800   110054346.039       -2010.828          41.750  
E30  25637693.380   134726996.547       -1462.945          46.500    25637696.880   103232372.832       -1122.402          48.750  
E19  24251509.560   127442536.762        1338.125          45.750    24251510.880    97650769.527        1024.637          45.500  
E11                                                                  25385653.880   102217493.434         -74.949          33.000  
E21                                                                  27602697.800   111144609.418        2545.285          37.500  
> 2023 12 11 10 13 03.0000000  0 29       0.000000000000
G30  20856225.880   109600207.781        -815.590          51.500    20856226.640    85402771.707        -635.023          48.250  
G07  22370498.480   117557760.609       -2400.703          48.000    22370497.080    91603448.094       -1869.699          42.000  
G05  21434816.860   112640733.422       -1761.930          50.000    21434816.700    87771987.500       -1373.785          46.250  
G15  22490922.140   118190584.387        3350.203          42.500    22490918.100    92096554.1333       2607.828          28.000  
G13  20397907.860   107191769.813        1521.680          49.750                                                                  
G22  23367651.480   122797826.609        3317.172          42.000                                                                  
G27  23880036.620   125490431.051       -1192.836          33.500                                                                  
G20  23262799.700   122246847.563       -3532.340          37.250                                                                  
G14  22276601.660   117064325.953        2721.066          46.500    22276601.660    91218963.949        2119.496          48.000  
G18                                                                  23538863.160    96387706.262        -344.746          40.500  
R15  20035831.900   107065449.902        2552.719          56.250    20035836.340    83273109.316        1984.813          48.750  
R14  19958727.920   106391290.977       -1813.809          56.750                                                                  
R05  19224451.380   102765747.938        -835.879          54.750    19224455.580    79928905.238        -649.715          48.250  
R21  23315668.760   124766886.797       -3574.723          35.000    23315678.980    97040926.652       -2779.234          40.750  
C07  38937731.040   202758980.539         916.730          42.750    38937730.100   156786092.625         708.535          41.500  
C24  25079567.400   130595878.816       -3102.938          46.250                                                                  
C10  39155598.580   203893473.891        1281.691          43.750    39155600.420   157663364.285         993.070          39.250  
C32  22269124.360   115961218.977         505.406          51.500                                                                  
C23  23396374.760   121831096.898        2519.762          51.500                                                                  
C20  25313017.320   131811498.496        3164.047          35.500                                                                  
C25  22037908.400   114757170.039        -480.227          53.750                                                                  
C09  40342307.300   210072974.094       -1123.871          36.750    40342312.700   162441762.180        -870.895          40.000  
E11  25385674.800   133402623.078         -94.645          32.000    25385672.480   102217568.938         -73.766          33.500  
E07  27403447.300   144006074.191       -2988.301          39.250                                                                  
E27  24670237.860   129642975.824        1565.281          48.500    24670243.600    99336829.637        1199.250          49.000  
E12  27332425.660   143632885.563       -2622.801          38.000    27332428.940   110056355.539       -2008.391          41.250  
E30  25637971.600   134728459.465       -1463.172          46.000    25637975.320   103233493.770       -1121.809          48.500  
E19  24251254.740   127441198.203        1337.625          45.500    24251256.100    97649743.898        1026.215          45.250  
E21  27602057.040   145049787.4651       3317.984          34.750    27602066.080   111142065.781        2543.035          37.500  
> 2023 12 11 10 13 04.0000000  0 29       0.000000000000
G30  20856381.000   109601022.418        -815.375          51.750    20856381.660    85403406.500        -635.242          48.250  
G07  22370954.620   117560159.508       -2399.922          48.000    22370953.580    91605317.359       -1870.500          41.750  
G05  21435152.180   112642495.566       -1763.750          50.250    21435152.220    87773360.602       -1375.852          46.250  
G15  22490284.220   118187232.508        3349.875          42.750    22490282.220    92093950.2543       2616.238          28.750  
G13  20397618.160   107190248.195        1520.613          50.250                                                                  
G22  23367020.340   122794510.328        3314.750          42.000                                                                  
G27  23880263.960   125491622.898       -1191.059          34.000                                                                  
G20  23263472.240   122250379.938       -3532.520          37.250                                                                  
G14  22276083.740   117061604.934        2720.031          47.000    22276083.800    91216843.676        2121.141          48.000  
G18                                                                  23538947.020    96388048.707        -342.797          40.500  
R15  20035354.020   107062896.773        2552.117          56.000    20035358.200    83271123.559        1984.117          48.750  
R14  19959068.080   106393103.926       -1814.125          56.500                                                                  
R05  19224607.580   102766583.313        -837.250          54.500    19224611.700    79929554.977        -650.328          48.250  
R21  23316337.940   124770461.621       -3573.645          35.250    23316347.120    97043707.055       -2781.766          40.750  
C07  38937555.240   202758063.539         915.887          42.750    38937554.120   156785383.566         709.215          41.750  
C24  25080163.140   130598981.074       -3103.063          46.250                                                                  
C10  39155352.220   203892191.016        1282.090          44.000    39155354.040   157662372.266         990.992          39.500  
C32  22269027.100   115960713.363         505.004          51.500                                                                  
C23  23395890.820   121828576.359        2520.371          51.750                                                                  
C20  25312410.040   131808334.871        3160.605          36.000                                                                  
C25  22038000.220   114757648.754        -479.500          54.000                                                                  
C09  40342523.740   210074099.145       -1126.590          37.000    40342529.140   162442632.172        -870.625          40.000  
E11  25385692.600   133402721.895        -101.324          31.000                                                                  
E07  27404015.440   144009061.680       -2986.059          39.000                                                                  
E27  24669940.080   129641410.660        1563.773          48.250    24669945.780    99335630.352        1197.801          49.000  
E12  27332925.180   143635508.188       -2625.770          38.000    27332928.080   110058365.070       -2012.465          41.250  
E30  25638249.840   134729922.648       -1464.527          45.750    25638253.720   103234614.910       -1122.859          48.500  
E19  24250999.940   127439859.773        1336.711          45.750    24251001.440    97648718.336        1026.172          45.250  
E21  27601425.540   145046467.754        3320.355          34.250    27601434.340   111139522.098        2544.578          37.000  
> 2023 12 11 10 13 05.0000000  0 29       0.000000000000
G30  20856536.240   109601837.586        -815.660          51.750    20856536.740    85404041.699        -636.262          48.250  
G07  22371411.220   117562558.711       -2399.449          48.000    22371410.140    91607186.855       -1870.156          42.000  
G05  21435487.780   112644258.352       -1762.813          50.500    21435487.620    87774734.203       -1374.207          46.250  
G15  22489646.280   118183880.969        3352.168          42.500    22489643.920    92091335.1641       2610.191          30.750  
G13  20397328.780   107188727.109        1520.219          50.250                                                                  
G22  23366389.280   122791194.316        3314.848          42.000                                                                  
G27  23880491.440   125492815.363       -1193.953          33.000                                                                  
G20  23264144.360   122253912.551       -3529.969          37.000                                                                  
G14  22275566.060   117058884.336        2719.930          47.250    22275566.100    91214723.738        2118.379          48.000  
G18                                                                  23539030.240    96388391.672        -343.816          40.500  
R15  20034876.000   107060344.328        2552.289          56.000    20034881.000    83269138.320        1984.559          49.000  
R14  19959408.060   106394917.652       -1814.777          56.500                                                                  
R05  19224763.900   102767419.492        -836.488          54.750    19224768.180    79930205.332        -651.402          48.750  
R21  23317008.800   124774036.949       -3577.039          34.750    23317014.660    97046487.848       -2782.016          41.000  
C07  38937379.060   202757146.676         917.613          42.750    38937378.120   156784674.563         708.305          41.750  
C24  25080758.940   130602083.520       -3104.023          46.250                                                                  
C10  39155106.000   203890908.246        1282.141          44.000    39155107.740   157661380.324         994.570          38.750  
C32  22268930.200   115960208.258         504.418          51.750                                                                  
C23  23395406.960   121826056.160        2518.938          51.750                                                                  
C20  25311803.100   131805171.438        3164.699          35.750                                                                  
C25  22038092.280   114758127.973        -479.910          54.250                                                                  
C09  40342739.960   210075224.203       -1126.809          37.000    40342745.000   162443502.117        -871.336          40.500  
E11  25385711.200   133402821.395        -101.160          31.500    25385710.840   102217724.9061        -75.191          33.250  
E07  27404582.980   144012049.254       -2988.480          38.500                                                                  
E27  24669642.340   129639845.910        1564.566          48.250    24669648.020    99334431.398        1197.359          49.250  
E12  27333424.060   143638131.098       -2621.934          38.000    27333427.100   110060374.848       -2009.836          41.500  
E30  25638528.300   134731386.250       -1464.625          46.000    25638532.280   103235736.379       -1122.246          48.750  
E19  24250745.280   127438521.645        1336.902          45.750    24250746.820    97647693.020        1024.109          45.500  
E21  27600794.240   145043148.027        3317.461          34.000    27600802.660   111136978.438        2543.113          37.500  
> 2023 12 11 10 13 06.0000000  0 29       0.000000000000
G30  20856691.520   109602653.305        -817.234          51.750    20856691.980    85404677.332        -636.516          48.500  
G07  22371867.920   117564958.262       -2400.965          48.000    22371866.640    91609056.637       -1870.129          42.000  
G05  21435823.180   112646021.746       -1764.781          49.750    21435823.480    87776108.301       -1376.832          46.500  
G15  22489008.500   118180529.754        3350.148          42.250    22489005.020    92088720.8551       2608.281          30.250  
G13  20397039.420   107187206.570        1519.688          50.250                                                                  
G22  23365758.400   122787878.590        3314.688          42.000                                                                  
G27  23880718.220   125494008.465       -1196.301          33.250                                                                  
G20  23264817.020   122257445.445       -3534.273          37.250                                                                  
G14  22275048.480   117056164.188        2719.078          47.000    22275048.480    91212604.133        2117.980          48.000  
G18                                                                  23539113.560    96388735.195        -344.504          40.000  
R15  20034398.440   107057792.574        2550.758          55.750    20034403.700    83267153.633        1984.039          49.000  
R14  19959748.580   106396732.137       -1815.477          56.500                                                                  
R05  19224920.460   102768256.438        -838.828          54.500    19224925.080    79930856.297        -651.184          48.500  
R21  23317674.700   124777612.4102      -3574.430          29.250    23317682.980    97049269.043       -2782.043          41.000  
C07  38937203.280   202756229.980         915.656          42.750    38937201.980   156783965.723         707.797          41.500  
C24  25081354.700   130605186.133       -3102.039          46.500                                                                  
C10  39154859.660   203889625.605        1282.180          44.000    39154861.920   157660388.527         992.031          39.000  
C32  22268833.340   115959703.691         502.961          52.000                                                                  
C23  23394922.920   121823536.332        2518.285          51.500                                                                  
C20  25311195.540   131802008.207        3159.406          36.500                                                                  
C25  22038184.400   114758607.730        -481.016          54.000                                                                  
C09  40342956.200   210076349.316       -1127.555          36.500    40342961.040   162444372.105        -870.168          40.500  
E11  25385730.540   133402921.301        -103.188          30.750                                                                  
E07  27405152.020   144015036.914       -2988.965          38.750                                                                  
E27  24669344.740   129638281.605        1564.008          48.250    24669350.440    99333232.777        1197.793          49.250  
E12  27333923.160   143640754.297       -2627.195          36.750    27333926.260   110062384.836       -2010.063          41.000  
E30  25638806.820   134732850.254       -1466.098          45.500    25638810.900   103236858.152       -1122.758          48.750  
E19  24250490.440   127437183.855        1337.688          45.500    24250492.160    97646667.961        1022.637          45.500  
E21  27600161.720   145039828.422        3317.844          33.250    27600171.080   111134434.824        2539.207          37.250  
> 2023 12 11 10 13 07.0000000  0 29       0.000000000000
G30  20856846.920   109603469.648        -817.781          51.750    20856847.300    85405313.434        -636.988          48.500  
G07  22372324.500   117567358.223       -2401.727          48.000    22372323.640    91610926.723       -1871.762          42.250  
G05  21436158.860   112647785.902       -1765.379          50.250    21436159.080    87777482.914       -1375.840          47.000  
G15  22488370.700   118177178.973        3350.324          42.500    22488367.760    92086111.3523       2609.891          28.750  
G13  20396750.200   107185686.645        1518.797          50.250                                                                  
G22  23365127.620   122784563.203        3314.828          42.250                                                                  
G27  23880944.800   125495202.371       -1194.680          33.750    23880950.700    97788512.9141       -933.289          32.000  
G20  23265489.660   122260978.664       -3534.375          37.250                                                                  
G14  22274531.140   117053444.602        2719.305          47.250    22274530.940    91210484.965        2116.707          47.750  
G18                                                                  23539197.220    96389079.258        -344.645          39.750  
R15  20033920.920   107055241.648        2549.883          55.750    20033926.120    83265169.582        1984.098          48.750  
R14  19960089.200   106398547.465       -1816.695          56.250                                                                  
R05  19225077.320   102769094.262        -838.449          54.750    19225082.060    79931507.941        -653.207          48.500  
R21  23318343.020   124781197.6523      -3578.504          33.750    23318353.460    97052050.641       -2782.465          40.250  
C07  38937027.100   202755313.508         914.887          42.750    38937025.720   156783257.066         708.711          41.750  
C24  25081950.580   130608289.031       -3103.188          46.750                                                                  
C10  39154613.420   203888343.152        1281.305          44.000    39154615.600   157659396.859         991.691          39.750  
C32  22268736.620   115959199.734         502.086          51.750                                                                  
C23  23394439.100   121821016.945        2518.922          51.750                                                                  
C20  25310587.920   131798845.176        3160.938          36.000                                                                  
C25  22038276.620   114759088.109        -481.277          54.000                                                                  
C09  40343172.580   210077474.438       -1123.879          37.000    40343177.680   162445242.113        -870.047          40.250  
E11  25385749.460   133403021.906        -102.977          31.000                                                                  
E07  27405721.540   144018024.727       -2987.535          39.500                                                                  
E27  24669047.140   129636717.852        1562.641          48.000    24669052.800    99332034.559        1196.898          49.250  
E12  27334421.580   143643377.789       -2625.043          36.250    27334425.560   110064395.039       -2010.988          40.250  
E30  25639085.180   134734314.797       -1465.137          45.500    25639089.540   103237980.305       -1123.137          48.750  
E19  24250235.840   127435846.441        1338.504          45.250    24250237.680    97645643.219        1025.691          44.750  
E21  27599529.920   145036508.949        3317.926          33.000    27599539.260   111131891.344        2542.215          38.250  
> 2023 12 11 10 13 08.0000000  0 29       0.000000000000
G30  20857002.440   109604286.648        -817.719          52.000    20857002.740    85405950.055        -637.254          48.000  
G07  22372781.440   117569758.629       -2401.332          48.500    22372780.480    91612797.184       -1871.516          42.000  
G05  21436494.840   112649550.777       -1765.578          51.000    21436494.980    87778858.164       -1376.469          46.500  
G15  22487733.040   118173828.582        3349.938          42.250                                                                  
G13  20396461.160   107184167.406        1518.793          50.750                                                                  
G22  23364496.740   122781248.230        3313.105          42.250                                                                  
G27  23881172.080   125496397.031       -1195.898          34.000    23881178.080    97789443.910        -932.250          31.750  
G20  23266162.100   122264512.234       -3536.461          38.750                                                                  
G14  22274013.840   117050725.570        2718.172          47.500    22274013.560    91208366.242        2117.871          47.500  
G18                                                                  23539280.800    96389423.980        -346.742          40.000  
R15  20033443.800   107052691.570        2549.570          55.750    20033449.280    83263186.195        1984.426          48.500  
R14  19960429.900   106400363.660       -1817.867          56.000                                                                  
R05  19225234.020   102769932.973        -840.152          54.500    19225239.520    79932160.273        -653.211          48.500  
R21                                                                  23319020.240    97054832.727       -2783.203          39.000  
C07  38936851.240   202754397.313         917.004          42.500    38936850.020   156782548.582         707.430          41.500  
C24  25082546.460   130611392.270       -3103.336          46.250                                                                  
C10  39154367.180   203887060.953        1282.234          43.750    39154368.780   157658405.383         988.340          38.750  
C32  22268639.900   115958696.441         502.949          51.750                                                                  
C23  23393955.340   121818498.047        2518.145          51.500                                                                  
C20  25309981.020   131795682.473        3162.270          36.250                                                                  
C25  22038368.920   114759569.105        -482.105          53.750                                                                  
C09  40343388.320   210078599.734       -1122.367          36.500    40343393.500   162446112.258        -873.289          40.500  
E11  25385768.720   133403123.137        -101.273          32.500                                                                  
E07  27406290.040   144021012.750       -2988.148          39.250                                                                  
E27  24668749.700   129635154.621        1562.832          48.500    24668755.400    99330836.766        1197.531          49.500  
E12  27334921.720   143646001.781       -2624.703          38.250    27334924.860   110066405.656       -2009.883          40.750  
E30  25639364.320   134735779.859       -1463.367          45.750    25639368.380   103239102.906       -1123.301          49.000  
E19  24249981.540   127434509.508        1337.191          45.500    24249983.300    97644618.773        1024.184          45.500  
E21  27598899.540   145033189.684        3317.438          34.000    27598907.960   111129348.043        2541.977          36.500  
> 2023 12 11 10 13 09.0000000  0 29       0.000000000000
G30  20857158.100   109605104.324        -818.816          52.000    20857158.220    85406587.207        -636.992          47.750  
G07  22373238.260   117572159.473       -2400.754          48.750    22373237.200    91614667.996       -1872.477          41.500  
G05  21436830.860   112651316.441       -1765.215          51.000    21436830.880    87780234.012       -1376.254          46.250  
G15  22487095.380   118170478.715        3348.359          43.000                                                                  
G13  20396172.160   107182648.844        1518.418          51.000                                                                  
G22  23363866.260   122777933.668        3313.203          41.750                                                                  
G27  23881399.700   125497592.625       -1195.652          34.250    23881406.900    97790375.512        -932.184          31.000  
G20  23266834.740   122268046.188       -3534.672          37.000                                                                  
G14  22273496.460   117048007.094        2717.609          47.750    22273496.040    91206247.949        2117.953          47.250  
G18                                                                  23539364.580    96389769.383        -344.656          39.750  
R15  20032966.640   107050142.340        2548.797          55.750    20032972.500    83261203.469        1982.328          48.500  
R14  19960770.800   106402180.742       -1817.188          56.250                                                                  
R05  19225391.140   102770772.598        -839.676          55.000    19225396.440    79932813.316        -653.188          48.500  
R21                                                                  23319687.840    97057615.316       -2783.406          38.750  
C07  38936675.100   202753481.383         915.273          42.500    38936673.900   156781840.352         709.531          41.750  
C24  25083142.380   130614495.801       -3104.422          46.250                                                                  
C10  39154121.100   203885778.973        1281.941          44.000    39154121.560   157657414.105         990.680          38.500  
C32  22268543.360   115958193.801         502.074          52.000                                                                  
C23  23393471.660   121815979.625        2517.641          51.500                                                                  
C20  25309373.780   131792520.105        3162.305          36.750                                                                  
C25  22038461.280   114760050.762        -482.203          53.750                                                                  
C09  40343603.460   210079725.152       -1125.105          36.250    40343609.840   162446982.504        -869.508          40.750  
E11  25385787.500   133403225.086        -100.891          32.500    25385786.440   102218030.184         -77.680          32.500  
E07  27406858.940   144024001.000       -2988.059          39.750                                                                  
E27  24668452.400   129633591.945        1562.695          48.500    24668458.140    99329639.406        1198.441          49.750  
E12  27335421.200   143648626.207       -2621.949          38.500    27335424.160   110068416.555       -2010.086          41.000  
E30  25639643.160   134737245.477       -1465.273          45.750    25639647.240   103240225.910       -1123.191          49.000  
E19  24249726.920   127433173.000        1335.473          46.000    24249729.080    97643594.688        1022.297          45.500  
E21                                                                  27598276.300   111126804.859        2542.668          36.750  
> 2023 12 11 10 13 10.0000000  0 28       0.000000000000
G30  20857313.860   109605922.852        -819.223          52.000    20857314.200    85407225.020        -637.578          47.750  
G07  22373695.280   117574560.988       -2401.164          48.750    22373693.980    91616539.277       -1871.059          41.500  
G05  21437166.880   112653083.078       -1766.582          51.000    21437166.760    87781610.598       -1376.859          46.250  
G15  22486457.860   118167129.500        3348.789          43.000                                                                  
G13  20395883.320   107181131.141        1518.012          51.000                                                                  
G22  23363235.300   122774619.711        3313.555          41.500                                                                  
G27  23881628.320   125498789.094       -1197.164          34.250    23881634.220    97791307.941        -932.176          30.500  
G20  23267506.980   122271580.785       -3536.316          36.750                                                                  
G14  22272979.260   117045289.383        2717.266          47.500    22272978.940    91204130.258        2118.035          47.250  
G18                                                                  23539448.760    96390115.539        -345.559          39.750  
R15  20032489.660   107047594.141        2548.309          55.750    20032495.400    83259221.535        1982.227          48.250  
R14  19961111.840   106403998.914       -1818.441          56.500                                                                  
R05  19225548.100   102771613.340        -841.215          55.000    19225553.980    79933467.230        -655.121          48.750  
R21                                                                  23320356.140    97060398.543       -2784.980          38.500  
C07  38936499.340   202752565.918         913.918          42.500    38936498.020   156781132.473         707.652          41.750  
C24  25083738.560   130617599.844       -3104.898          46.250                                                                  
C10  39153875.060   203884497.441        1281.176          44.000    39153875.560   157656423.129         991.180          38.500  
C32  22268446.900   115957692.016         501.855          52.000                                                                  
C23  23392988.080   121813461.898        2516.938          51.750                                                                  
C20  25308766.820   131789358.246        3162.188          36.500                                                                  
C25  22038553.940   114760533.258        -481.992          53.750                                                                  
C09  40343819.760   210080850.883       -1126.160          36.000    40343826.100   162447852.988        -869.230          40.750  
E07  27407427.800   144026989.648       -2990.184          40.000    27407423.540   110358324.6411      -2288.059          30.750  
E27  24668155.360   129632030.027        1561.008          48.500    24668160.880    99328442.605        1196.129          50.000  
E12  27335919.940   143651251.203       -2627.227          38.500    27335923.540   110070427.910       -2011.340          40.750  
E30  25639921.980   134738711.855       -1467.441          45.750    25639926.320   103241349.496       -1124.418          48.750  
E19  24249472.960   127431837.129        1335.125          45.750    24249474.880    97642571.105        1022.496          45.750  
E21                                                                  27597644.720   111124262.023        2539.656          37.250  
> 2023 12 11 10 13 11.0000000  0 28       0.000000000000
G30  20857469.580   109606741.438        -819.293          51.250    20857470.080    85407862.875        -638.188          48.250  
G07  22374152.120   117576962.336       -2402.254          47.750    22374150.820    91618410.477       -1871.918          41.500  
G05  21437503.000   112654849.871       -1767.414          49.750    21437503.080    87782987.332       -1376.770          46.750  
G15  22485820.640   118163780.113        3349.457          42.500                                                                  
G13  20395594.400   107179613.496        1517.313          50.000                                                                  
G22  23362604.300   122771305.555        3313.098          41.000                                                                  
G27  23881856.540   125499985.836       -1197.551          33.500    23881862.140    97792238.4451       -934.430          30.500  
G20  23268179.700   122275115.125       -3535.246          35.750                                                                  
G14  22272462.080   117042571.641        2717.137          46.750    22272461.760    91202012.531        2117.355          47.750  
G18                                                                  23539533.200    96390461.820        -349.539          40.250  
R15  20032012.840   107045046.129        2547.660          55.750    20032018.380    83257239.738        1981.410          48.000  
R14  19961453.120   106405817.344       -1819.273          56.500                                                                  
R05  19225705.560   102772454.387        -841.445          54.750    19225711.360    79934121.375        -655.332          48.250  
R21  23321010.000   124795476.1023      -3579.770          29.500    23321023.620    97063181.793       -2785.586          37.500  
C07  38936323.500   202751650.145         914.195          42.500    38936321.960   156780424.324         709.035          41.750  
C24  25084334.560   130620703.625       -3104.520          46.250                                                                  
C10  39153628.920   203883215.574        1281.473          44.000    39153629.200   157655431.891         990.773          38.250  
C32  22268350.600   115957190.281         501.285          52.000                                                                  
C23  23392504.520   121810944.059        2517.672          51.500                                                                  
C20  25308159.400   131786196.133        3161.953          36.750                                                                  
C25  22038646.620   114761015.816        -483.316          53.750                                                                  
C09  40344035.300   210081976.152       -1124.891          36.250    40344042.340   162448723.129        -870.820          41.000  
E07  27407996.740   144029977.910       -2986.355          39.750    27407992.280   110360614.355       -2291.285          31.250  
E27  24667858.180   129630468.078        1562.789          48.500    24667863.700    99327245.781        1196.402          50.000  
E12  27336419.780   143653876.039       -2627.539          38.750    27336423.040   110072439.148       -2011.887          40.750  
E30  25640200.780   134740178.172       -1466.734          45.750    25640205.360   103242473.035       -1124.547          49.000  
E19  24249218.620   127430501.086        1336.348          46.000    24249220.600    97641547.371        1022.641          46.000  
E21  27597003.940   145023244.0161       3319.629          33.500    27597013.060   111121718.859        2542.902          37.750  
> 2023 12 11 10 13 12.0000000  0 29       0.000000000000
G30  20857625.540   109607561.145        -819.250          52.000    20857626.040    85408501.609        -638.246          48.250  
G07  22374609.180   117579364.590       -2402.094          48.000    22374608.360    91620282.363       -1871.566          42.000  
G05  21437839.300   112656617.879       -1768.141          50.500    21437839.600    87784364.996       -1377.555          47.000  
G15  22485183.820   118160431.621        3348.000          43.500                                                                  
G13  20395305.780   107178096.973        1515.859          50.750                                                                  
G22  23361974.160   122767992.262        3312.613          41.750                                                                  
G27  23882086.000   125501183.859       -1196.273          34.750    23882087.580    97793171.9961       -933.574          29.750  
G20  23268852.620   122278650.371       -3538.004          36.500                                                                  
G14  22271945.040   117039854.918        2715.980          47.500    22271944.640    91199895.613        2116.492          48.000  
G18                                                                  23539618.020    96390809.125        -347.445          40.500  
R15  20031536.420   107042499.387        2546.348          55.750    20031542.240    83255258.930        1981.066          48.250  
R14  19961794.560   106407637.102       -1820.262          56.500                                                                  
R05  19225863.200   102773296.797        -842.699          55.000    19225868.620    79934776.582        -655.590          48.500  
R21  23321681.480   124799069.5353      -3579.969          29.000    23321692.560    97065965.863       -2784.426          37.000  
C07  38936147.580   202750735.102         914.199          42.250    38936146.100   156779716.738         706.695          41.250  
C24  25084930.660   130623808.164       -3106.613          45.500                                                                  
C10  39153382.740   203881934.391        1282.254          43.500    39153383.280   157654441.223         990.000          38.250  
C32  22268254.380   115956689.645         500.098          51.500                                                                  
C23  23392021.240   121808427.148        2517.020          51.250                                                                  
C20  25307552.140   131783034.703        3162.063          36.000                                                                  
C25  22038739.420   114761499.449        -483.902          53.250                                                                  
C09  40344252.080   210083102.043       -1124.129          35.750    40344258.780   162449593.719        -868.746          40.750  
E11  25385845.140   133403508.4571       -104.313          32.750                                                                  
E07  27408564.040   144032966.848       -2987.219          38.250    27408562.400   110362904.613       -2289.594          31.500  
E27  24667561.200   129628907.117        1559.762          48.500    24667566.640    99326049.723        1195.941          50.000  
E12  27336919.720   143656501.703       -2626.883          39.000    27336922.600   110074451.020       -2013.762          40.750  
E30  25640479.800   134741645.480       -1468.367          45.250    25640484.640   103243597.340       -1123.969          49.000  
E19  24248964.500   127429165.938        1333.453          46.000    24248966.600    97640524.348        1023.344          45.750  
E21  27596372.800   145019925.613        3319.840          33.750    27596381.620   111119176.234        2539.859          37.750  
> 2023 12 11 10 13 13.0000000  0 28       0.000000000000
G30  20857781.400   109608380.309        -820.703          52.000    20857781.920    85409139.918        -639.441          48.500  
G07  22375066.040   117581766.098       -2402.824          48.000    22375065.160    91622153.672       -1870.840          42.250  
G05  21438175.620   112658385.445       -1769.113          50.500    21438175.860    87785742.324       -1378.828          47.250  
G15  22484546.760   118157082.414        3349.363          43.250                                                                  
G13  20395017.200   107176579.926        1516.383          50.750                                                                  
G22  23361343.300   122764678.156        3312.414          42.000                                                                  
G27  23882313.500   125502381.492       -1197.859          34.750    23882314.560    97794090.1091       -934.469          30.500  
G20  23269524.620   122282184.746       -3535.805          35.750                                                                  
G14  22271427.840   117037137.570        2715.570          47.250    22271427.540    91197778.199        2115.785          48.000  
G18                                                                  23539702.960    96391156.137        -350.465          40.500  
R15  20031059.600   107039952.273        2545.516          55.250    20031065.460    83253277.852        1979.871          48.500  
R14  19962136.020   106409456.531       -1820.930          56.000                                                                  
R05  19226020.900   102774138.918        -843.754          54.500    19226026.280    79935431.563        -656.012          48.750  
R21                                                                  23322359.980    97068749.496       -2784.051          37.500  
C07  38935971.720   202749819.129         914.531          42.250    38935970.280   156779008.449         707.863          41.250  
C24  25085526.640   130626911.836       -3103.137          45.250                                                                  
C10  39153136.860   203880652.242        1280.988          43.250    39153136.560   157653449.789         989.801          38.000  
C32  22268158.020   115956188.492         500.023          51.250                                                                  
C23  23391537.820   121805909.535        2516.156          51.000                                                                  
C20  25306945.260   131779872.453        3161.680          36.250                                                                  
C25  22038832.100   114761982.563        -484.387          53.250                                                                  
C09  40344468.160   210084226.809       -1125.281          35.750    40344474.400   162450463.488        -870.227          40.500  
E07  27409132.480   144035954.781       -2988.602          38.000                                                                  
E27  24667264.080   129627345.527        1560.492          48.750    24667269.520    99324853.180        1195.547          50.000  
E12  27337419.720   143659126.609       -2627.297          39.000    27337422.140   110076462.313       -2012.035          40.500  
E30  25640758.980   134743112.152       -1465.867          45.250    25640763.780   103244721.148       -1124.422          49.000  
E19  24248710.300   127427830.035        1334.660          45.750    24248712.320    97639500.730        1022.941          45.750  
E21                                                                  27595749.880   111116632.797        2541.090          37.750  
> 2023 12 11 10 13 14.0000000  0 28       0.000000000000
G30  20857937.440   109609200.516        -820.793          52.000    20857937.940    85409779.047        -639.082          48.250  
G07  22375523.340   117584168.430       -2402.852          47.750    22375522.320    91624025.621       -1871.168          42.250  
G05  21438512.240   112660154.137       -1768.969          50.500    21438512.600    87787120.512       -1378.754          47.000  
G15  22483909.540   118153734.035        3349.352          43.250                                                                  
G13  20394728.760   107175063.910        1516.055          50.750                                                                  
G22  23360712.720   122761364.820        3313.082          41.750                                                                  
G27  23882541.600   125503580.246       -1199.316          34.500    23882542.340    97795022.2151       -934.016          29.000  
G20  23270197.660   122285719.871       -3538.055          36.000                                                                  
G14  22270910.860   117034421.160        2715.145          47.250    22270910.520    91195661.516        2115.715          48.000  
G18                                                                  23539788.060    96391504.063        -348.535          40.500  
R15  20030583.300   107037406.395        2545.605          54.750    20030589.300    83251297.723        1981.191          48.250  
R14  19962477.460   106411277.207       -1821.234          55.500                                                                  
R05  19226178.540   102774982.340        -844.270          54.000    19226184.100    79936087.543        -656.641          48.500  
R21                                                                  23323030.040    97071533.863       -2784.668          37.500  
C07  38935796.520   202748903.809         915.000          41.750    38935794.220   156778300.664         707.152          41.250  
C24  25086122.860   130630016.191       -3104.035          45.250                                                                  
C10  39152890.760   203879370.715        1281.441          43.000    39152890.660   157652458.852         993.648          38.000  
C32  22268061.900   115955688.336         499.180          51.000                                                                  
C23  23391054.460   121803392.777        2516.281          51.000                                                                  
C20  25306338.180   131776710.871        3161.770          35.750                                                                  
C25  22038925.180   114762466.664        -485.246          53.000                                                                  
C09  40344683.860   210085352.125       -1127.031          35.250    40344690.900   162451333.641        -872.277          40.500  
E07  27409701.100   144038943.313       -2988.418          38.000                                                                  
E27  24666967.280   129625784.875        1560.074          48.500    24666972.520    99323657.355        1194.277          50.000  
E12  27337918.840   143661752.289       -2624.004          39.000    27337921.740   110078474.191       -2011.918          40.750  
E30  25641038.020   134744579.723       -1467.543          45.000    25641043.040   103245845.656       -1125.113          49.000  
E19  24248456.400   127426494.965        1334.508          45.750    24248458.260    97638477.758        1022.789          45.750  
E21                                                                  27595118.280   111114089.805        2541.891          37.500  
> 2023 12 11 10 13 15.0000000  0 28       0.000000000000
G30  20858093.460   109610021.395        -821.293          52.000    20858094.140    85410418.680        -640.172          48.500  
G07  22375980.460   117586571.230       -2402.840          48.000    22375979.540    91625897.922       -1871.801          42.500  
G05  21438849.020   112661923.590       -1770.574          50.500    21438849.380    87788499.309       -1380.543          47.250  
G15  22483272.340   118150386.109        3346.133          43.250                                                                  
G13  20394440.440   107173548.574        1514.266          50.750                                                                  
G22  23360082.160   122758051.918        3314.637          42.000                                                                  
G27  23882770.060   125504779.836       -1200.242          34.500    23882769.860    97795956.9021       -936.723          28.500  
G20  23270869.920   122289255.406       -3538.359          36.250                                                                  
G14  22270394.120   117031705.328        2714.488          47.500    22270393.820    91193545.285        2116.117          48.250  
G18                                                                  23539873.160    96391852.609        -347.168          40.250  
R15  20030107.080   107034861.375        2544.555          56.000    20030113.300    83249318.266        1979.629          48.500  
R14  19962819.240   106413098.762       -1822.016          56.500                                                                  
R05  19226336.380   102775826.668        -844.617          55.000    19226342.060    79936744.254        -656.047          48.500  
R21                                                                  23323699.280    97074318.758       -2786.109          36.500  
C07  38935620.680   202747988.730         914.977          42.250    38935618.380   156777593.074         708.055          40.750  
C24  25086719.200   130633120.863       -3104.113          45.250                                                                  
C10  39152644.680   203878089.449        1280.914          43.250    39152644.460   157651468.043         991.168          38.250  
C32  22267966.000   115955188.867         499.043          51.250                                                                  
C23  23390571.260   121800876.516        2516.383          51.000                                                                  
C20  25305730.780   131773549.578        3160.645          36.000                                                                  
C25  22039018.320   114762951.434        -487.008          53.250                                                                  
C09  40344900.160   210086477.586       -1126.230          35.750    40344907.000   162452203.902        -871.461          40.250  
E07  27410270.060   144041932.031       -2990.164          38.000                                                                  
E27  24666670.160   129624224.777        1559.859          48.750    24666675.660    99322461.953        1194.328          49.750  
E12  27338418.980   143664378.379       -2627.293          39.000    27338421.440   110080486.379       -2012.188          40.500  
E30  25641317.200   134746047.875       -1466.652          45.000    25641322.340   103246970.598       -1124.906          49.000  
E19  24248202.320   127425160.352        1336.469          46.000    24248204.340    97637455.133        1023.266          45.750  
E21  27594478.820   145009978.805        3319.793          33.750    27594486.720   111111546.977        2541.668          37.750  
> 2023 12 11 10 13 16.0000000  0 28       0.000000000000
G30  20858249.700   109610842.941        -822.879          51.500    20858250.440    85411058.852        -642.199          48.500  
G07  22376437.820   117588974.477       -2405.164          47.250    22376437.300    91627770.570       -1872.949          42.500  
G05  21439186.000   112663693.809       -1770.707          50.250    21439186.260    87789878.699       -1380.480          47.250  
G15  22482635.260   118147038.648        3347.730          42.750                                                                  
G13  20394152.080   107172033.910        1514.484          50.250                                                                  
G22  23359451.740   122754739.410        3310.715          41.500                                                                  
G27  23882998.160   125505980.227       -1201.984          33.750    23882997.000    97796887.3051       -936.086          29.250  
G20  23271542.360   122292791.359       -3534.789          35.000                                                                  
G14  22269877.440   117028990.070        2714.691          46.750    22269877.180    91191429.496        2114.852          48.250  
G18                                                                  23539958.540    96392201.797        -349.535          40.500  
R15  20029630.800   107032317.203        2544.457          55.750    20029637.680    83247339.465        1978.844          48.500  
R14  19963161.120   106414921.230       -1824.023          56.500                                                                  
R05  19226494.580   102776671.906        -846.176          54.750    19226500.380    79937401.652        -657.602          48.750  
R21                                                                  23324369.100    97077104.113       -2784.809          37.000  
C07  38935444.520   202747073.953         914.406          42.250    38935442.260   156776885.699         708.359          40.750  
C24  25087315.520   130636225.867       -3106.406          45.250                                                                  
C10  39152398.460   203876808.414        1281.156          43.250    39152398.240   157650477.512         990.371          38.000  
C32  22267870.320   115954690.043         498.867          51.250                                                                  
C23  23390088.200   121798360.746        2515.234          51.250                                                                  
C20  25305123.560   131770388.609        3160.418          36.000                                                                  
C25  22039111.500   114763436.863        -486.082          53.250                                                                  
C09  40345115.960   210087603.156       -1125.855          35.750    40345122.800   162453074.254        -872.055          40.750  
E07  27410838.620   144044920.969       -2990.539          38.000    27410837.100   110372070.2421      -2290.320          31.500  
E27  24666373.360   129622665.254        1558.930          48.750    24666378.920    99321267.000        1194.977          50.000  
E12  27338918.620   143667004.883       -2626.398          39.250    27338921.000   110082498.914       -2013.023          40.500  
E30  25641597.060   134747516.566       -1468.371          45.250    25641601.840   103248095.961       -1124.949          49.000  
E19  24247948.680   127423826.191        1332.492          46.000    24247950.460    97636432.863        1021.316          46.000  
E21  27593847.780   145006660.445        3317.570          33.750    27593855.140   111109004.359        2541.648          37.500  
> 2023 12 11 10 13 17.0000000  0 28       0.000000000000
G30  20858406.060   109611664.691        -822.973          51.500    20858406.760    85411699.180        -641.387          48.250  
G07  22376895.280   117591377.727       -2403.199          47.500    22376894.360    91629643.223       -1875.168          42.250  
G05  21439522.940   112665464.328       -1771.445          50.000    21439523.500    87791258.324       -1379.527          47.250  
G15  22481998.260   118143691.184        3345.277          42.750                                                                  
G13  20393863.720   107170519.449        1513.316          50.250                                                                  
G22  23358821.420   122751426.836        3313.086          41.250                                                                  
G27  23883225.620   125507180.988       -1200.375          33.250    23883226.800    97797825.0661       -935.625          29.000  
G20  23272215.480   122296327.184       -3537.055          35.500                                                                  
G14  22269360.620   117026274.918        2714.535          46.750    22269360.460    91189313.785        2114.441          48.000  
G18                                                                  23540043.780    96392551.238        -349.371          40.250  
R15  20029154.880   107029773.363        2542.637          56.000    20029161.440    83245360.922        1977.719          48.500  
R14  19963502.920   106416744.133       -1823.793          56.500                                                                  
R05  19226652.840   102777517.566        -846.441          55.000    19226658.300    79938059.383        -658.820          48.750  
R21                                                                  23325038.700    97079889.609       -2787.223          37.250  
C07  38935268.940   202746159.008         914.719          42.250    38935266.740   156776178.223         705.961          41.500  
C24  25087911.620   130639330.719       -3105.969          45.500                                                                  
C10  39152152.520   203875527.152        1280.625          43.500    39152152.160   157649486.707         992.816          38.250  
C32  22267774.520   115954191.406         496.766          51.250                                                                  
C23  23389605.000   121795845.000        2515.242          51.250                                                                  
C20  25304516.940   131767227.445        3159.242          36.250                                                                  
C25  22039204.780   114763922.465        -486.426          53.250                                                                  
C09  40345331.840   210088728.371       -1126.555          35.500    40345338.920   162453944.348        -871.250          41.250  
E07  27411407.700   144047909.668       -2989.223          38.250    27411405.980   110374360.262       -2292.879          31.250  
E27  24666076.800   129621105.809        1557.613          49.000    24666082.100    99320072.105        1194.012          50.000  
E12  27339418.340   143669631.352       -2627.344          39.250    27339420.780   110084511.398       -2010.348          40.500  
E30  25641876.360   134748985.352       -1469.293          45.000    25641881.280   103249221.395       -1125.680          49.000  
E19  24247694.960   127422492.004        1334.422          46.000    24247696.540    97635410.559        1021.484          46.000  
E21                                                                  27593223.640   111106461.480        2542.516          37.750  
> 2023 12 11 10 13 18.0000000  0 29       0.000000000000
G30  20858562.600   109612487.051        -823.348          51.500    20858563.140    85412339.977        -641.527          48.500  
G07  22377352.620   117593781.363       -2404.453          47.500    22377351.920    91631516.176       -1873.723          42.500  
G05  21439860.160   112667235.547       -1773.379          50.250    21439860.420    87792638.508       -1380.918          47.500  
G15  22481361.500   118140344.121        3346.313          43.000                                                                  
G13  20393575.720   107169005.602        1512.176          50.250                                                                  
G22  23358191.280   122748114.617        3310.734          41.500                                                                  
G27  23883453.820   125508382.457       -1203.719          33.000    23883455.580    97798763.2421       -935.910          28.750  
G20  23272888.060   122299863.359       -3538.719          35.250                                                                  
G14  22268843.940   117023560.285        2714.156          46.750    22268843.820    91187198.496        2115.945          48.250  
G18                                                                  23540129.080    96392901.281        -351.059          40.000  
R15  20028678.980   107027230.305        2541.871          56.000    20028685.520    83243382.984        1977.359          48.750  
R14  19963844.960   106418567.863       -1824.746          56.500                                                                  
R05  19226811.400   102778364.078        -846.969          55.250    19226816.420    79938717.785        -657.652          48.750  
R21                                                                  23325708.800    97082675.527       -2788.336          36.750  
C07  38935093.380   202745244.254         914.191          42.250    38935090.980   156775470.887         709.344          41.000  
C24  25088508.060   130642435.863       -3104.406          45.250                                                                  
C10  39151906.480   203874246.078        1279.465          43.250    39151906.140   157648496.117         991.164          38.000  
C32  22267678.880   115953693.379         495.938          51.250                                                                  
C23  23389122.040   121793329.688        2514.828          51.000                                                                  
C20  25303909.840   131764066.609        3160.563          36.500                                                                  
C25  22039298.140   114764408.656        -486.789          53.250                                                                  
C09  40345548.300   210089853.695       -1129.254          35.250    40345555.200   162454814.523        -871.195          41.250  
E11  25385966.560   133404156.445        -106.813          33.250                                                                  
E07  27411975.920   144050898.520       -2989.305          38.250                                                                  
E27  24665780.100   129619546.887        1556.629          49.000    24665785.420    99318877.602        1194.125          50.000  
E12  27339918.800   143672258.160       -2626.359          39.250    27339920.680   110086524.137       -2014.684          40.250  
E30  25642156.040   134750454.629       -1470.297          45.250    25642160.900   103250347.199       -1126.668          49.000  
E19  24247441.100   127421158.207        1332.051          46.000    24247442.680    97634388.547        1021.035          46.000  
E21                                                                  27592592.240   111103918.727        2543.336          37.500  
> 2023 12 11 10 13 19.0000000  0 29       0.000000000000
G30  20858719.080   109613309.891        -824.293          52.000    20858719.820    85412981.148        -643.355          48.500  
G07  22377809.940   117596185.289       -2404.461          48.000    22377809.080    91633389.387       -1873.480          42.500  
G05  21440197.380   112669007.367       -1772.578          50.750    21440197.320    87794019.148       -1379.711          47.750  
G15  22480724.240   118136997.332        3345.727          43.500                                                                  
G13  20393287.860   107167492.234        1512.105          51.000                                                                  
G22  23357561.020   122744802.633        3310.410          41.750                                                                  
G27  23883682.680   125509584.586       -1203.203          33.750    23883682.120    97799691.9611       -935.328          29.000  
G20  23273561.140   122303399.777       -3537.258          36.500                                                                  
G14  22268327.320   117020846.035        2713.297          47.250    22268327.420    91185083.492        2115.156          48.250  
G18                                                                  23540214.260    96393251.809        -352.625          40.250  
R15  20028202.960   107024687.895        2541.176          56.000    20028209.020    83241405.559        1976.688          48.500  
R14  19964187.020   106420392.281       -1825.363          56.500                                                                  
R05  19226969.960   102779211.336        -848.074          55.000    19226975.200    79939376.754        -659.078          48.750  
R21  23326372.420   124824152.7232      -3580.035          28.500    23326377.100    97085461.777       -2786.387          37.000  
C07  38934917.700   202744329.613         914.395          42.250    38934914.800   156774763.633         707.285          41.000  
C24  25089104.180   130645541.121       -3103.137          45.250                                                                  
C10  39151660.540   203872965.094        1281.082          43.250    39151660.380   157647505.590         991.578          37.750  
C32  22267583.340   115953195.832         496.379          51.250                                                                  
C23  23388639.140   121790814.684        2513.637          51.000                                                                  
C20  25303302.940   131760905.887        3159.230          35.750                                                                  
C25  22039391.640   114764895.324        -487.293          53.250                                                                  
C09  40345764.220   210090978.977       -1122.688          35.750    40345771.400   162455684.664        -870.160          40.750  
E11  25385985.820   133404263.363        -109.273          33.000                                                                  
E07  27412544.820   144053887.418       -2988.777          38.000                                                                  
E27  24665483.460   129617988.340        1558.484          49.000    24665488.820    99317683.387        1192.703          49.750  
E12  27340417.980   143674885.180       -2628.047          39.250    27340420.480   110088537.066       -2012.746          40.250  
E30  25642435.620   134751924.277       -1472.402          45.250    25642440.500   103251473.293       -1126.227          49.000  
E19  24247187.340   127419824.672        1332.199          46.000    24247188.980    97633366.758        1021.359          46.000  
E21                                                                  27591960.640   111101376.020        2543.254          37.500  
> 2023 12 11 10 13 20.0000000  0 29       0.000000000000
G30  20858875.920   109614133.938        -824.004          52.000    20858876.520    85413623.273        -642.051          48.500  
G07  22378267.540   117598590.195       -2404.348          48.000    22378266.540    91635263.340       -1873.246          42.750  
G05  21440534.780   112670780.480       -1773.246          50.750    21440534.820    87795400.781       -1381.840          47.500  
G15  22480087.520   118133651.551        3346.910          43.250                                                                  
G13  20393000.160   107165980.086        1512.051          51.000                                                                  
G22  23356931.060   122741491.578        3311.285          41.750                                                                  
G27  23883911.560   125510788.070       -1203.629          33.500    23883910.580    97800626.7191       -936.313          28.750  
G20  23274233.960   122306937.105       -3537.332          36.500                                                                  
G14  22267811.240   117018132.914        2714.066          47.250    22267811.080    91182969.371        2114.957          48.250  
G18                                                                  23540300.080    96393603.426        -350.539          40.000  
R15  20027727.480   107022146.863        2540.223          56.000    20027733.720    83239429.191        1976.016          48.500  
R14  19964529.500   106422218.113       -1825.887          56.500                                                                  
R05  19227128.640   102780060.051        -849.395          55.000    19227134.400    79940036.867        -661.027          48.750  
R21  23327045.400   124827772.1412      -3582.094          29.000    23327047.420    97088248.945       -2785.953          36.500  
C07  38934742.380   202743415.777         913.645          42.250    38934739.300   156774056.977         706.809          40.750  
C24  25089700.640   130648647.234       -3106.148          45.250                                                                  
C10  39151414.600   203871684.887        1281.465          43.250    39151414.600   157646515.668         991.191          37.250  
C32  22267488.060   115952699.477         496.133          51.250                                                                  
C23  23388156.340   121788300.707        2514.527          51.250                                                                  
C20  25302696.080   131757746.023        3156.781          36.500                                                                  
C25  22039485.400   114765383.172        -488.211          53.250                                                                  
C09  40345980.940   210092104.922       -1123.816          35.250    40345987.800   162456555.297        -870.664          40.500  
E11  25386007.400   133404371.645        -107.547          33.000                                                                  
E07  27413113.920   144056877.070       -2989.633          37.750                                                                  
E27  24665186.940   129616430.883        1558.355          49.000    24665192.400    99316490.016        1192.238          49.750  
E12  27340918.580   143677513.195       -2627.992          39.250    27340920.560   110090550.711       -2011.527          40.250  
E30  25642715.720   134753395.012       -1472.156          45.000    25642720.360   103252600.215       -1126.590          49.000  
E19  24246933.840   127418492.152        1332.934          46.000    24246935.480    97632345.750        1021.852          46.000  
E21                                                                  27591329.240   111098833.891        2541.793          37.750  
> 2023 12 11 10 13 21.0000000  0 29       0.000000000000
G30  20859032.900   109614958.418        -824.391          52.250    20859033.360    85414265.715        -643.191          48.250  
G07  22378725.260   117600995.336       -2406.391          48.250    22378724.280    91637137.453       -1873.566          42.500  
G05  21440872.120   112672554.121       -1774.461          50.750    21440872.400    87796782.848       -1380.344          47.500  
G15  22479450.880   118130305.988        3345.492          43.250                                                                  
G13  20392712.580   107164468.379        1511.828          51.250                                                                  
G22  23356301.260   122738180.707        3311.176          42.250                                                                  
G27  23884141.000   125511992.102       -1204.551          34.000    23884140.380    97801566.9261       -939.578          27.500  
G20  23274907.020   122310474.605       -3537.219          36.500                                                                  
G14  22267294.760   117015420.125        2713.023          47.500    22267294.860    91180855.512        2114.375          48.250  
G18                                                                  23540385.260    96393955.453        -351.445          39.750  
R15  20027252.240   107019606.434        2539.746          56.000    20027258.360    83237453.305        1977.164          48.250  
R14  19964871.820   106424044.594       -1825.996          56.250                                                                  
R05  19227287.680   102780909.434        -849.656          55.000    19227293.500    79940697.504        -661.129          48.500  
R21                                                                  23327718.120    97091036.449       -2787.480          36.500  
C07  38934566.820   202742501.988         913.602          42.250    38934563.780   156773350.387         707.883          41.000  
C24  25090297.380   130651753.430       -3107.379          45.250                                                                  
C10  39151168.880   203870404.676        1280.262          43.500    39151168.520   157645525.727         990.816          37.750  
C32  22267392.900   115952203.547         494.598          51.500                                                                  
C23  23387673.740   121785786.984        2513.520          51.250                                                                  
C20  25302089.200   131754586.223        3159.582          36.500                                                                  
C25  22039579.120   114765871.441        -488.504          53.250                                                                  
C09  40346197.280   210093230.742       -1125.340          35.250    40346204.000   162457425.844        -869.715          40.750  
E11  25386028.140   133404480.250        -108.031          33.000    25386027.220   102218997.9101        -85.504          32.500  
E07  27413682.860   144059866.684       -2991.496          38.000                                                                  
E27  24664890.720   129614873.762        1557.168          49.000    24664896.060    99315296.898        1192.391          49.750  
E12  27341418.500   143680141.379       -2626.723          39.250    27341420.700   110092564.512       -2016.832          40.250  
E30  25642995.580   134754866.055       -1470.418          45.000    25643000.280   103253727.383       -1127.074          49.000  
E19  24246680.440   127417159.867        1333.168          46.000    24246681.900    97631324.887        1020.500          46.000  
E21  27590689.700   144990054.3831       3320.621          33.500    27590698.060   111096291.703        2541.188          37.500  
> 2023 12 11 10 13 22.0000000  0 29       0.000000000000
G30  20859189.960   109615783.582        -824.754          52.250    20859190.280    85414908.699        -642.867          48.250  
G07  22379182.980   117603400.938       -2405.180          48.250    22379182.140    91639011.945       -1874.520          42.500  
G05  21441209.820   112674328.543       -1775.266          50.750    21441210.140    87798165.516       -1381.461          47.500  
G15  22478814.360   118126960.891        3347.539          43.250                                                                  
G13  20392425.160   107162957.352        1511.273          51.250                                                                  
G22  23355670.920   122734870.238        3310.445          41.750                                                                  
G27  23884369.940   125513196.973       -1203.438          33.500    23884369.520    97802506.7621       -938.719          28.250  
G20  23275580.760   122314012.418       -3539.059          37.250                                                                  
G14  22266778.500   117012707.914        2711.781          47.250    22266778.760    91178742.094        2113.059          48.250  
G18                                                                  23540470.780    96394308.137        -352.695          39.500  
R15  20026777.040   107017066.871        2539.648          56.250    20026783.100    83235478.086        1975.539          48.500  
R14  19965214.660   106425871.957       -1828.051          56.250                                                                  
R05  19227446.840   102781759.723        -850.855          55.250    19227452.400    79941358.836        -660.602          48.500  
R21                                                                  23328387.740    97093824.461       -2784.316          37.000  
C07  38934391.480   202741588.496         913.109          42.000    38934388.040   156772644.016         706.879          41.250  
C24  25090893.580   130654859.961       -3107.789          45.500                                                                  
C10  39150923.000   203869124.711        1278.910          43.500    39150923.180   157644535.961         993.832          37.500  
C32  22267297.820   115951708.285         494.707          51.500                                                                  
C23  23387191.220   121783273.762        2512.844          51.250                                                                  
C20  25301483.360   131751426.707        3158.902          36.250                                                                  
C25  22039673.040   114766360.355        -489.352          53.250                                                                  
C09  40346413.620   210094356.672       -1128.297          35.000    40346420.180   162458296.531        -870.449          41.000  
E11  25386048.880   133404589.559        -110.688          33.500    25386048.300   102219081.609         -83.020          32.250  
E07  27414252.120   144062856.527       -2988.625          38.000    27414250.120   110385813.0161      -2289.016          32.000  
E27  24664594.620   129613317.203        1555.770          49.000    24664599.860    99314104.223        1193.316          49.750  
E12  27341919.120   143682769.961       -2630.195          39.250    27341920.800   110094578.641       -2014.531          40.000  
E30  25643275.660   134756337.664       -1469.457          45.000    25643280.380   103254854.984       -1126.516          49.000  
E19  24246427.060   127415828.012        1332.965          46.250    24246428.440    97630304.375        1020.484          46.000  
E21  27590058.520   144986736.816        3314.969          33.500    27590066.680   111093749.699        2538.797          37.750  
> 2023 12 11 10 13 23.0000000  0 29       0.000000000000
G30  20859347.100   109616609.203        -825.707          51.500    20859347.400    85415552.039        -643.297          48.250  
G07  22379641.040   117605806.789       -2405.547          47.750    22379640.020    91640886.641       -1875.578          42.500  
G05  21441547.460   112676103.531       -1774.930          50.000    21441547.880    87799548.609       -1383.715          47.500  
G15  22478177.800   118123616.066        3345.598          42.500                                                                  
G13  20392137.800   107161446.789        1509.930          50.500                                                                  
G22  23355041.080   122731559.965        3309.133          41.000                                                                  
G27  23884598.840   125514402.410       -1206.367          32.250    23884599.760    97803448.1451       -939.324          28.500  
G20  23276254.280   122317550.484       -3537.145          36.500                                                                  
G14  22266262.420   117009996.074        2711.617          46.750    22266262.580    91176628.984        2112.262          48.250  
G18                                                                  23540557.040    96394661.324        -354.105          39.500  
R15  20026302.180   107014527.930        2538.387          56.250    20026308.260    83233503.352        1974.633          48.250  
R14  19965557.820   106427700.004       -1828.547          56.250                                                                  
R05  19227606.160   102782610.703        -851.645          55.250    19227611.560    79942020.715        -662.879          48.250  
R21                                                                  23329057.860    97096612.750       -2788.211          36.500  
C07  38934216.340   202740675.063         912.918          41.750    38934213.160   156771937.691         706.980          41.000  
C24  25091490.340   130657966.602       -3107.688          45.250                                                                  
C10  39150677.280   203867844.832        1280.063          43.500    39150677.200   157643546.281         990.977          37.750  
C32  22267202.780   115951213.477         494.168          51.500                                                                  
C23  23386708.680   121780760.824        2512.551          51.250                                                                  
C20  25300876.540   131748267.348        3158.477          36.750                                                                  
C25  22039766.940   114766849.734        -489.438          53.000                                                                  
C09  40346629.100   210095482.590       -1127.500          35.000    40346636.560   162459167.160        -871.848          41.000  
E11  25386068.640   133404699.262        -110.738          33.000                                                                  
E07  27414820.780   144065846.383       -2990.836          38.250    27414819.080   110388103.969       -2289.980          31.750  
E27  24664298.520   129611761.020        1556.094          49.000    24664303.660    99312911.820        1191.406          49.750  
E12  27342419.640   143685398.809       -2629.488          39.250    27342421.060   110096592.957       -2015.148          40.000  
E30  25643555.660   134757809.637       -1471.551          45.000    25643560.440   103255982.852       -1127.789          49.000  
E19  24246173.660   127414496.398        1332.250          46.000    24246175.080    97629284.051        1019.164          45.750  
E21  27589427.600   144983419.324        3315.473          33.500    27589435.480   111091207.695        2543.078          37.500  
> 2023 12 11 10 13 24.0000000  0 29       0.000000000000
G30  20859504.440   109617435.461        -827.141          51.000    20859504.700    85416195.887        -643.809          48.250  
G07  22380099.080   117608213.086       -2406.156          46.750    22380098.100    91642761.684       -1875.402          42.250  
G05  21441885.440   112677879.281       -1776.023          48.750    21441885.760    87800932.340       -1383.531          47.000  
G15  22477541.320   118120271.734        3343.980          41.500                                                                  
G13  20391850.340   107159936.902        1509.176          49.750                                                                  
G22  23354411.200   122728250.148        3308.980          41.250                                                                  
G27  23884828.000   125515608.699       -1207.531          31.750    23884828.420    97804384.9531       -942.746          27.500  
G20  23276928.240   122321088.973       -3537.930          37.500                                                                  
G14  22265746.380   117007284.789        2710.750          45.750    22265746.740    91174516.297        2112.699          48.250  
G18                                                                  23540642.840    96395015.121        -353.516          39.000  
R15  20025827.200   107011989.809        2538.016          56.000    20025832.820    83231529.266        1974.191          48.250  
R14  19965900.880   106429528.941       -1829.473          56.250                                                                  
R05  19227765.640   102783462.574        -852.773          55.000    19227770.560    79942683.285        -662.125          48.000  
R21                                                                  23329729.240    97099401.570       -2789.297          36.250  
C07  38934040.680   202739761.914         913.215          42.500    38934037.480   156771231.621         708.156          40.000  
C24  25092087.240   130661073.609       -3106.949          45.500                                                                  
C10  39150431.760   203866565.180        1280.176          43.750    39150431.860   157642556.773         992.445          37.750  
C32  22267108.200   115950719.324         493.074          51.750                                                                  
C23  23386226.320   121778248.359        2511.730          51.250                                                                  
C20  25300270.780   131745108.305        3159.227          37.000                                                                  
C25  22039861.220   114767339.742        -489.789          53.500                                                                  
C09  40346845.720   210096608.672       -1127.414          35.500    40346852.880   162460037.902        -872.371          40.500  
E11  25386088.440   133404797.6801       -109.590          33.500                                                                  
E07  27415390.460   144068836.438       -2989.668          38.000    27415387.900   110390394.941       -2291.305          30.750  
E27  24664002.260   129610205.367        1554.750          49.000    24664007.660    99311719.820        1191.949          49.000  
E12  27342919.960   143688028.070       -2629.797          36.500    27342921.420   110098607.590       -2020.363          38.750  
E30  25643836.120   134759282.137       -1473.676          45.250    25643840.580   103257111.133       -1128.469          48.000  
E19  24245920.400   127413165.230        1331.141          45.500    24245921.680    97628264.074        1020.656          45.250  
E21  27588794.140   144980101.984        3318.961          33.750    27588804.220   111088665.805        2540.672          36.750  
> 2023 12 11 10 13 25.0000000  0 29       0.000000000000
G30  20859661.640   109618261.844        -827.117          51.250    20859661.980    85416839.816        -644.242          48.250  
G07  22380556.940   117610619.262       -2406.480          47.000    22380556.040    91644636.617       -1875.949          41.750  
G05  21442223.300   112679655.219       -1776.598          49.250    21442223.580    87802316.180       -1385.070          46.750  
G15  22476904.780   118116927.219        3344.457          40.750                                                                  
G13  20391563.020   107158427.094        1509.754          49.750                                                                  
G22  23353781.140   122724940.121        3308.742          41.750                                                                  
G27  23885057.500   125516815.238       -1208.023          31.000                                                                  
G20  23277601.260   122324627.176       -3538.957          37.500                                                                  
G14  22265230.540   117004573.520        2711.047          46.000    22265231.060    91172403.613        2111.816          47.750  
G18                                                                  23540729.660    96395369.102        -354.199          37.750  
R15  20025352.440   107009451.949        2537.219          56.250    20025357.980    83229555.367        1972.906          48.500  
R14  19966244.180   106431358.203       -1829.715          56.000                                                                  
R05  19227925.040   102784314.801        -852.828          55.000    19227930.000    79943346.117        -664.281          48.250  
R21  23330384.740   124845642.8633      -3588.805          28.500    23330399.060    97102190.305       -2790.391          37.750  
C07  38933865.280   202738848.461         912.777          42.750    38933862.080   156770525.262         706.754          40.500  
C24  25092683.640   130664180.320       -3106.770          45.500                                                                  
C10  39150185.660   203865285.223        1279.613          43.250    39150185.720   157641566.965         991.012          38.000  
C32  22267013.360   115950225.250         492.109          51.750                                                                  
C23  23385743.800   121775735.832        2512.391          51.500                                                                  
C20  25299664.060   131741949.012        3157.789          37.000                                                                  
C25  22039955.360   114767829.840        -490.730          53.500                                                                  
C09  40347062.080   210097734.277       -1127.367          35.250    40347068.600   162460908.285        -869.539          41.500  
E11  25386111.620   133404908.148        -111.828          33.750                                                                  
E07  27415959.200   144071826.152       -2989.438          37.000    27415957.500   110392685.879       -2289.344          31.750  
E27  24663706.360   129608649.707        1554.996          49.000    24663711.640    99310527.836        1191.996          49.000  
E12  27343420.260   143690657.105       -2631.277          38.000    27343421.600   110100622.031       -2015.047          39.750  
E30  25644116.200   134760754.629       -1473.496          45.250    25644120.680   103258239.402       -1129.082          48.250  
E19  24245667.060   127411833.910        1331.559          45.500    24245668.400    97627243.977        1021.273          46.000  
E21  27588163.560   144976784.309        3317.840          34.250    27588172.540   111086123.723        2541.266          37.000  
> 2023 12 11 10 13 26.0000000  0 29       0.000000000000
G30  20859819.060   109619088.918        -827.543          51.250    20859819.400    85417484.297        -644.813          48.250  
G07  22381014.740   117613025.941       -2406.996          47.250    22381014.000    91646511.957       -1873.539          41.250  
G05  21442561.340   112681431.953       -1776.227          49.250    21442561.480    87803700.648       -1385.379          46.500  
G15  22476268.200   118113583.227        3341.777          41.500    22476264.680    92036553.766        2603.691          31.250  
G13  20391275.800   107156917.996        1508.363          50.000                                                                  
G22  23353151.560   122721630.543        3310.367          42.250                                                                  
G27  23885286.760   125518022.633       -1208.043          31.250                                                                  
G20  23278275.280   122328165.840       -3539.629          37.500                                                                  
G14  22264714.700   117001862.848        2710.023          46.250    22264715.260    91170291.398        2111.652          47.750  
G18                                                                  23540816.160    96395723.730        -355.137          38.250  
R15  20024877.600   107006914.957        2536.566          56.250    20024883.720    83227582.164        1972.934          48.500  
R14  19966587.480   106433188.387       -1830.785          56.250                                                                  
R05  19228084.780   102785167.996        -853.625          55.250    19228090.280    79944009.715        -663.852          48.500  
R21                                                                  23331069.600    97104979.629       -2791.109          38.250  
C07  38933689.980   202737935.320         913.074          43.250    38933686.700   156769819.148         705.797          40.250  
C24  25093280.520   130667287.395       -3108.430          45.750                                                                  
C10  39149939.660   203864005.496        1278.340          44.000    39149940.340   157640577.461         990.449          37.750  
C32  22266918.660   115949731.867         493.332          52.000                                                                  
C23  23385261.320   121773223.820        2512.500          51.750                                                                  
C20  25299056.900   131738790.020        3158.684          37.750                                                                  
C25  22040049.660   114768320.621        -491.527          54.000                                                                  
C09  40347278.360   210098859.949       -1123.898          36.000    40347285.040   162461778.781        -868.848          40.750  
E11  25386132.260   133405019.352        -112.660          33.750                                                                  
E07  27416527.940   144074816.098       -2990.801          37.000    27416526.800   110394976.750       -2291.324          31.750  
E27  24663410.500   129607094.648        1553.746          49.250    24663415.600    99309336.309        1191.969          48.750  
E12  27343920.860   143693286.633       -2628.320          38.750    27343922.040   110102636.867       -2013.625          40.000  
E30  25644396.320   134762227.680       -1474.777          45.500    25644401.020   103259368.109       -1128.844          48.250  
E19  24245413.860   127410503.078        1330.422          45.750    24245415.140    97626224.234        1020.195          46.000  
E21  27587531.920   144973466.855        3319.367          34.000    27587541.320   111083581.754        2540.594          37.000  
> 2023 12 11 10 13 27.0000000  0 29       0.000000000000
G30  20859976.540   109619917.027        -829.234          51.500    20859977.280    85418129.566        -644.520          48.250  
G07  22381472.940   117615433.430       -2407.906          47.500    22381471.880    91648387.922       -1874.891          41.750  
G05  21442899.640   112683209.820       -1776.656          49.500    21442899.700    87805085.992       -1386.121          46.500  
G15  22475632.040   118110240.070        3342.422          41.750    22475629.240    92033948.637        2605.328          32.250  
G13  20390988.720   107155409.953        1508.434          50.000                                                                  
G22  23352521.740   122718321.754        3309.953          42.250                                                                  
G27  23885516.240   125519231.148       -1208.727          31.500                                                                  
G20  23278948.660   122331705.273       -3537.949          38.500                                                                  
G14  22264199.000   116999153.137        2709.328          46.250    22264199.720    91168179.918        2112.594          47.750  
G18                                                                  23540903.460    96396079.301        -356.805          38.250  
R15  20024403.260   107004379.180        2536.020          56.250    20024409.260    83225609.887        1971.668          48.500  
R14  19966931.180   106435019.805       -1831.527          56.250                                                                  
R05  19228244.480   102786022.488        -854.688          55.000    19228249.520    79944674.328        -665.324          48.750  
R21                                                                  23331740.920    97107769.684       -2789.648          38.750  
C07  38933514.640   202737022.859         913.906          43.000    38933511.260   156769113.570         707.805          39.500  
C24  25093877.320   130670395.152       -3108.473          45.750                                                                  
C10  39149694.440   203862726.414        1279.902          43.500    39149694.200   157639588.395         989.184          38.000  
C32  22266824.260   115949239.520         492.465          52.000                                                                  
C23  23384779.020   121770712.676        2512.043          51.500                                                                  
C20  25298449.940   131735631.699        3157.645          37.250                                                                  
C25  22040144.020   114768812.422        -492.066          53.500                                                                  
C09  40347494.260   210099986.313       -1125.535          35.250    40347501.220   162462649.680        -870.367          41.250  
E11  25386153.900   133405131.543        -114.094          34.250                                                                  
E07  27417096.940   144077806.617       -2989.246          37.250    27417096.840   110397268.191       -2290.918          32.000  
E27  24663114.660   129605540.547        1554.523          49.000    24663119.920    99308145.480        1190.977          49.000  
E12  27344421.420   143695916.934       -2628.313          38.500    27344422.640   110104652.262       -2016.988          40.250  
E30  25644676.880   134763701.680       -1474.125          45.250    25644681.400   103260497.516       -1129.570          48.250  
E19  24245160.620   127409173.063        1329.621          45.750    24245162.040    97625205.137        1019.020          46.000  
E21  27586901.380   144970150.000        3318.379          34.750    27586910.240   111081040.266        2543.129          37.250  
> 2023 12 11 10 13 28.0000000  0 29       0.000000000000
G30  20860134.420   109620745.914        -828.438          51.750    20860134.900    85418775.445        -646.078          48.500  
G07  22381930.980   117617841.480       -2407.652          47.750    22381929.920    91650264.344       -1874.387          41.750  
G05  21443238.080   112684988.543       -1778.785          49.750    21443238.220    87806472.016       -1386.172          46.500  
G15  22474996.140   118106897.480        3342.699          41.750    22474992.340    92031344.004        2605.340          31.250  
G13  20390701.940   107153902.668        1505.879          50.250                                                                  
G22  23351892.160   122715013.465        3308.625          42.750                                                                  
G27  23885745.500   125520440.578       -1209.715          32.000                                                                  
G20  23279622.140   122335245.203       -3538.750          38.500                                                                  
G14  22263683.280   116996444.086        2710.000          46.500    22263684.120    91166068.984        2110.727          48.000  
G18                                                                  23540990.620    96396435.594        -353.785          38.500  
R15  20023929.020   107001844.363        2534.785          56.500    20023934.860    83223638.359        1971.098          48.750  
R14  19967274.820   106436852.207       -1832.047          56.250                                                                  
R05  19228404.600   102786877.984        -856.129          55.250    19228409.560    79945339.703        -664.848          48.750  
R21  23332400.200   124856415.3162      -3587.309          30.750    23332410.700    97110560.375       -2789.637          38.750  
C07  38933339.460   202736110.719         913.785          43.000    38933335.720   156768408.258         707.207          39.750  
C24  25094473.960   130673503.313       -3108.223          45.750                                                                  
C10  39149448.900   203861447.648        1277.387          43.750    39149448.380   157638599.559         989.477          37.500  
C32  22266729.960   115948747.922         490.840          52.000                                                                  
C23  23384296.820   121768202.109        2510.773          51.500                                                                  
C20  25297842.780   131732473.820        3157.602          37.000                                                                  
C25  22040238.560   114769304.969        -492.945          53.500                                                                  
C09  40347709.840   210101112.738       -1126.848          35.000    40347717.580   162463520.781        -869.543          41.250  
E07  27417666.480   144080797.445       -2989.844          37.000    27417665.780   110399559.848       -2291.367          31.500  
E27  24662819.200   129603987.078        1554.168          49.000    24662824.300    99306955.172        1190.035          49.000  
E12  27344921.960   143698547.746       -2634.559          38.750    27344923.240   110106668.074       -2016.754          40.250  
E30  25644957.340   134765176.313       -1472.480          45.250    25644962.000   103261627.434       -1129.902          48.250  
E19  24244907.340   127407843.637        1329.684          45.500    24244909.060    97624186.488        1018.219          46.000  
E21  27586270.040   144966833.406        3318.668          35.000    27586279.060   111078499.020        2542.188          37.250  
E11                                                                  25386174.400   102219590.6131        -88.727          32.000  
> 2023 12 11 10 13 29.0000000  0 29       0.000000000000
G30  20860292.360   109621575.250        -830.102          52.000    20860292.680    85419421.695        -646.703          48.500  
G07  22382389.300   117620249.785       -2408.727          48.000    22382388.420    91652140.918       -1876.371          41.750  
G05  21443576.740   112686767.848       -1778.430          49.750    21443576.560    87807858.480       -1386.984          46.750  
G15  22474359.560   118103555.133        3340.156          42.000    22474355.980    92028739.613        2604.199          31.750  
G13  20390415.280   107152395.871        1506.324          50.500                                                                  
G22  23351262.860   122711705.371        3308.695          42.750                                                                  
G27  23885976.500   125521650.613       -1210.910          32.250                                                                  
G20  23280296.180   122338785.297       -3540.918          39.000                                                                  
G14  22263167.780   116993735.410        2707.930          46.500    22263168.680    91163958.328        2110.582          48.250  
G18                                                                  23541078.160    96396792.320        -356.789          39.000  
R15  20023454.800   106999310.168        2534.078          56.250    20023460.160    83221667.324        1970.813          48.500  
R14  19967618.360   106438685.293       -1832.992          56.250                                                                  
R05  19228564.840   102787734.164        -856.039          55.250    19228569.800    79946005.621        -667.180          48.750  
R21  23333071.700   124860003.6842      -3587.965          32.500    23333081.720    97113351.340       -2791.395          39.250  
C07  38933164.600   202735198.680         910.348          43.000    38933160.900   156767703.012         704.695          40.250  
C24  25095070.900   130676611.602       -3108.469          45.750                                                                  
C10  39149203.220   203860168.949        1280.434          43.500    39149202.680   157637610.773         985.863          37.250  
C32  22266635.800   115948256.793         491.023          52.000                                                                  
C23  23383814.680   121765691.828        2510.355          51.500                                                                  
C20  25297235.780   131729316.063        3157.422          37.000                                                                  
C25  22040333.220   114769797.961        -492.902          53.750                                                                  
C09  40347926.340   210102239.184       -1125.594          35.500    40347933.860   162464391.758        -871.602          41.750  
E07  27418235.840   144083788.316       -2990.332          37.000    27418234.760   110401851.609       -2290.211          32.500  
E27  24662523.700   129602433.977        1553.168          49.250    24662528.720    99305765.137        1190.195          49.000  
E12  27345422.300   143701178.723       -2629.887          38.750    27345423.800   110108684.047       -2014.887          40.500  
E30  25645238.260   134766651.293       -1474.297          45.500    25645242.680   103262757.621       -1129.453          48.500  
E19  24244654.520   127406514.445        1329.840          45.750    24244656.060    97623168.012        1019.082          46.250  
E21  27585639.780   144963516.844        3316.004          35.500    27585648.020   111075957.770        2537.789          37.750  
E11                                                                  25386195.980   102219677.570         -88.891          32.250  
> 2023 12 11 10 13 30.0000000  0 28       0.000000000000
G30  20860450.160   109622404.984        -830.449          52.000    20860450.580    85420068.246        -647.676          48.250  
G07  22382847.700   117622658.273       -2407.336          47.750    22382847.020    91654017.664       -1876.945          42.000  
G05  21443915.520   112688547.633       -1780.672          49.750    21443915.340    87809245.328       -1386.391          46.750  
G15  22473723.260   118100212.973        3341.863          42.000    22473719.740    92026135.258        2604.992          31.500  
G13  20390128.540   107150889.453        1506.277          50.500                                                                  
G22  23350633.460   122708397.426        3307.855          42.500                                                                  
G20  23280969.980   122342325.512       -3540.820          39.250                                                                  
G14  22262652.420   116991027.020        2707.910          46.500    22262653.320    91161847.906        2110.414          48.000  
G18                                                                  23541165.680    96397149.523        -357.906          39.250  
R15  20022981.040   106996776.531        2533.824          56.500    20022986.080    83219696.711        1971.500          48.500  
R14  19967962.600   106440518.988       -1834.594          56.250                                                                  
R05  19228724.980   102788590.973        -856.586          55.250    19228729.980    79946672.027        -666.840          49.000  
R21  23333748.320   124863592.930       -3587.555          33.750    23333752.580    97116142.590       -2792.441          39.250  
C07  38932989.220   202734286.664         913.473          42.750    38932985.780   156766997.781         707.953          40.000  
C24  25095668.120   130679719.930       -3109.043          46.000                                                                  
C10  39148957.580   203858890.223        1278.852          43.250    39148957.220   157636621.977         989.090          36.750  
C32  22266541.560   115947766.039         491.074          52.000                                                                  
C23  23383332.540   121763181.773        2510.332          51.500                                                                  
C20  25296629.500   131726158.313        3157.902          37.000                                                                  
C25  22040428.020   114770291.332        -492.762          53.750                                                                  
C09  40348143.100   210103365.461       -1129.582          35.500    40348150.640   162465262.699        -868.785          42.000  
E11  25386218.120   133405475.7581       -114.480          33.250    25386217.760   102219764.789         -87.477          32.250  
E07  27418804.180   144086779.109       -2989.523          37.000    27418804.260   110404143.211       -2291.527          31.750  
E27  24662228.380   129600881.164        1552.867          49.250    24662233.100    99304575.316        1189.371          49.000  
E12  27345923.100   143703809.914       -2629.707          38.000    27345924.580   110110700.125       -2016.422          40.250  
E30  25645518.800   134768126.551       -1475.168          45.500    25645523.460   103263888.016       -1130.195          48.500  
E19  24244401.640   127405185.426        1329.785          45.750    24244403.140    97622149.676        1018.879          46.500  
E21  27585008.540   144960200.242        3316.121          35.500    27585017.020   111073416.430        2543.016          37.750  
> 2023 12 11 10 13 31.0000000  0 29       0.000000000000
G30  20860608.100   109623235.273        -830.570          52.000    20860608.620    85420715.219        -645.668          48.250  
G07  22383305.960   117625067.086       -2408.730          47.750    22383305.680    91655894.660       -1875.934          42.000  
G05  21444254.360   112690328.066       -1780.473          49.750    21444254.240    87810632.672       -1386.332          46.500  
G15  22473086.900   118096871.176        3341.508          41.250    22473084.120    92023531.262        2603.742          32.250  
G13  20389842.060   107149383.609        1505.215          50.250                                                                  
G22  23350004.040   122705089.730        3307.109          43.000                                                                  
G27  23886438.240   125524072.5203      -1209.500          32.750                                                                  
G20  23281643.900   122345865.977       -3541.949          38.500                                                                  
G14  22262137.120   116988319.098        2707.598          46.250    22262138.060    91159737.824        2111.172          48.000  
G18                                                                  23541254.220    96397507.207        -357.277          39.750  
R15  20022507.160   106994243.617        2533.184          56.500    20022511.840    83217726.668        1969.766          48.500  
R14  19968306.580   106442353.426       -1834.844          56.000                                                                  
R05  19228885.500   102789448.586        -857.223          55.250    19228890.420    79947339.063        -667.750          49.000  
R21  23334418.620   124867182.141       -3589.234          33.750    23334423.680    97118934.223       -2791.434          39.000  
C07  38932814.240   202733374.773         912.625          43.000    38932810.760   156766292.641         706.891          40.500  
C24  25096265.060   130682828.469       -3107.172          46.250                                                                  
C10  39148711.860   203857611.621        1278.805          43.750    39148712.360   157635633.246         988.641          37.000  
C32  22266447.500   115947275.848         489.816          52.250                                                                  
C23  23382850.500   121760672.086        2510.387          51.750                                                                  
C20  25296023.220   131723000.797        3157.813          37.000                                                                  
C25  22040522.860   114770785.242        -493.645          54.000                                                                  
C09  40348359.700   210104491.785       -1122.086          35.250    40348367.000   162466133.602        -869.258          42.000  
E11  25386240.500   133405590.129        -113.941          33.750    25386239.180   102219852.383         -90.871          32.000  
E07  27419372.580   144089769.973       -2989.586          36.500    27419373.500   110406434.879       -2292.879          32.250  
E27  24661932.900   129599328.789        1552.949          49.250    24661937.740    99303385.840        1188.410          49.250  
E12  27346424.320   143706441.363       -2631.582          38.750    27346425.380   110112716.445       -2016.781          40.000  
E30  25645799.600   134769602.254       -1475.473          45.250    25645804.180   103265018.734       -1130.832          48.500  
E19  24244148.820   127403856.750        1328.012          45.500    24244150.380    97621131.586        1017.668          46.250  
E21  27584377.080   144956883.672        3315.551          35.000    27584385.940   111070875.188        2542.473          38.000  
> 2023 12 11 10 13 32.0000000  0 29       0.000000000000
G30  20860766.300   109624066.137        -831.129          52.000    20860766.860    85421362.637        -647.445          48.500  
G07  22383764.460   117627476.254       -2410.371          47.250    22383763.860    91657771.922       -1879.484          41.750  
G05  21444593.280   112692109.180       -1781.773          49.500    21444593.100    87812020.551       -1388.254          46.750  
G15  22472450.420   118093529.742        3340.359          40.250    22472448.660    92020927.586        2604.176          32.500  
G13  20389555.620   107147878.336        1505.242          50.000                                                                  
G22  23349375.180   122701782.379        3308.098          41.750                                                                  
G27  23886670.180   125525284.438       -1214.266          32.750                                                                  
G20  23282317.800   122349406.766       -3539.738          39.250                                                                  
G14  22261621.780   116985611.645        2707.230          46.250    22261623.000    91157628.125        2110.180          48.500  
G18                                                                  23541341.720    96397865.473        -360.566          40.000  
R15  20022033.340   106991711.445        2532.133          56.250    20022037.540    83215757.207        1967.723          48.750  
R14  19968650.540   106444188.652       -1835.730          56.000                                                                  
R05  19229046.120   102790307.047        -858.523          55.000    19229051.440    79948006.754        -667.719          49.250  
R21  23335089.280   124870771.906       -3588.551          31.500    23335093.820    97121726.250       -2791.594          39.250  
C07  38932639.260   202732463.074         911.230          42.500    38932635.900   156765587.668         705.207          41.000  
C24  25096861.920   130685937.223       -3109.059          45.500                                                                  
C10  39148466.360   203856333.145        1278.652          43.000    39148466.940   157634644.668         985.898          37.750  
C32  22266353.560   115946786.207         488.973          51.750                                                                  
C23  23382368.660   121758162.813        2510.094          51.250                                                                  
C20  25295416.540   131719843.527        3157.551          36.500                                                                  
C25  22040617.800   114771279.695        -495.000          53.500                                                                  
C09  40348576.380   210105618.074       -1126.375          35.750    40348583.180   162467004.543        -868.621          42.500  
E11  25386261.160   133405705.039        -112.164          33.250    25386260.920   102219940.352         -84.410          32.000  
E07  27419941.860   144092760.961       -2991.957          36.250    27419943.700   110408726.688       -2291.297          33.250  
E27  24661637.540   129597776.887        1551.789          49.000    24661642.300    99302196.715        1189.699          49.250  
E12  27346924.680   143709073.152       -2632.492          38.500    27346926.120   110114733.008       -2015.207          40.250  
E30  25646080.240   134771078.391       -1475.980          45.000    25646085.060   103266149.809       -1131.566          48.500  
E19  24243895.980   127402528.418        1329.457          45.250    24243897.560    97620113.770        1019.191          46.250  
E21  27583746.800   144953567.219        3316.820          34.500    27583754.880   111068334.000        2541.621          38.250  
> 2023 12 11 10 13 33.0000000  0 29       0.000000000000
G30  20860924.460   109624897.543        -831.273          51.750    20860925.160    85422010.492        -647.945          48.500  
G07  22384223.120   117629885.766       -2409.758          47.500    22384222.400    91659649.473       -1876.777          42.000  
G05  21444932.240   112693890.926       -1781.012          49.250    21444931.960    87813408.922       -1390.188          46.750  
G15  22471814.080   118090188.641        3340.996          39.750                                                                  
G13  20389269.220   107146373.613        1504.805          50.000                                                                  
G22  23348745.900   122698475.324        3307.031          41.250                                                                  
G27  23886901.740   125526497.160       -1213.980          33.000                                                                  
G20  23282992.180   122352947.801       -3542.203          39.000                                                                  
G14  22261106.580   116982904.672        2708.117          46.000    22261107.860    91155518.793        2108.840          48.750  
G18                                                                  23541429.640    96398224.289        -360.199          40.250  
R15  20021559.600   106989179.969        2531.727          56.500    20021564.220    83213788.277        1968.637          49.000  
R14  19968994.960   106446024.648       -1836.609          56.250                                                                  
R05  19229206.800   102791166.309        -859.363          55.250    19229212.500    79948675.070        -668.668          49.250  
R21  23335760.480   124874362.180       -3589.113          32.000    23335764.260    97124518.684       -2791.895          39.000  
C07  38932464.060   202731551.539         912.316          42.750    38932461.380   156764882.840         705.926          41.000  
C24  25097459.020   130689046.195       -3109.824          45.500                                                                  
C10  39148221.040   203855054.836        1278.398          43.500    39148220.920   157633656.207         989.082          37.500  
C32  22266259.620   115946297.102         488.746          52.250                                                                  
C23  23381886.940   121755653.887        2508.535          51.250                                                                  
C20  25294809.860   131716686.379        3156.410          36.750                                                                  
C25  22040712.800   114771774.688        -495.781          53.500                                                                  
C09  40348792.280   210106744.402       -1124.734          36.500    40348799.860   162467875.480        -871.738          42.750  
E07  27420511.680   144095752.066       -2989.352          36.000                                                                  
E27  24661342.180   129596225.434        1552.027          48.750    24661347.040    99301007.941        1189.840          49.250  
E12  27347425.580   143711705.199       -2631.676          38.500    27347426.840   110116749.766       -2017.719          40.500  
E30  25646361.200   134772554.969       -1476.250          45.000    25646365.980   103267281.223       -1131.512          48.500  
E19  24243643.220   127401200.383        1328.961          45.250    24243644.760    97619096.199        1016.996          46.500  
E21  27583116.240   144950250.902        3320.559          35.000    27583124.000   111065792.922        2542.078          37.000  
E11                                                                  25386282.860   102220028.930         -86.949          31.250  
> 2023 12 11 10 13 34.0000000  0 29       0.000000000000
G30  20861082.840   109625729.555        -834.027          52.000    20861083.480    85422658.809        -649.387          48.500  
G07  22384681.600   117632295.672       -2409.422          47.500    22384680.620    91661527.320       -1877.855          42.000  
G05  21445271.480   112695673.367       -1783.141          49.250    21445271.280    87814797.840       -1388.008          46.750  
G15  22471178.140   118086847.914        3339.863          40.000    22471177.060    92015720.0121       2601.949          33.000  
G13  20388982.840   107144869.492        1502.777          50.000                                                                  
G22  23348116.700   122695168.598        3306.391          41.250                                                                  
G27  23887133.780   125527710.570       -1214.027          33.250                                                                  
G20  23283665.800   122356489.168       -3540.742          39.000                                                                  
G14  22260591.440   116980198.195        2706.117          45.750    22260592.900    91153409.844        2109.059          48.500  
G18                                                                  23541517.040    96398583.660        -360.270          40.500  
R15  20021085.900   106986649.258        2529.977          56.500    20021090.660    83211819.945        1967.672          48.750  
R14  19969339.380   106447861.441       -1837.773          56.000                                                                  
R05  19229367.540   102792026.410        -861.273          55.250    19229373.520    79949344.039        -670.719          49.250  
R21  23336435.660   124877953.000       -3592.582          33.500    23336435.800    97127311.555       -2791.180          39.000  
C07  38932289.100   202730640.234         910.512          43.000    38932286.020   156764178.148         704.551          41.250  
C24  25098055.700   130692155.410       -3109.051          45.250                                                                  
C10  39147975.600   203853776.672        1278.324          43.500    39147975.940   157632667.855         988.223          38.000  
C32  22266165.820   115945808.586         488.480          52.250                                                                  
C23  23381405.200   121753145.395        2507.609          51.250                                                                  
C20  25294203.860   131713529.500        3158.438          36.500                                                                  
C25  22040807.920   114772270.270        -496.473          53.500                                                                  
C09  40349008.620   210107870.859       -1126.035          36.000    40349016.380   162468746.500        -872.996          43.250  
E07  27421080.260   144098743.301       -2991.293          35.750                                                                  
E27  24661047.200   129594674.465        1549.664          48.750    24661051.880    99299819.551        1188.902          49.250  
E12  27347926.320   143714337.621       -2634.582          38.250    27347927.920   110118766.813       -2015.867          40.500  
E30  25646642.460   134774032.039       -1477.918          45.000    25646647.080   103268413.000       -1132.117          48.500  
E19  24243390.480   127399872.719        1327.289          45.250    24243392.120    97618078.891        1016.672          46.250  
E21  27582485.880   144946934.719        3316.543          34.750    27582492.900   111063251.965        2538.242          36.750  
E11                                                                  25386304.840   102220117.832         -87.137          31.750  
> 2023 12 11 10 13 35.0000000  0 29       0.000000000000
G30  20861241.300   109626561.875        -832.113          52.000    20861241.900    85423307.383        -648.809          48.500  
G07  22385140.220   117634705.691       -2410.359          47.500    22385139.280    91663405.246       -1877.395          42.000  
G05  21445610.680   112697456.227       -1783.500          49.250    21445610.620    87816187.074       -1390.191          46.750  
G15  22470542.100   118083507.344        3340.613          39.750    22470541.540    92013116.941        2603.008          33.000  
G13  20388696.520   107143365.695        1503.863          50.250                                                                  
G22  23347487.900   122691861.953        3307.109          41.250                                                                  
G27  23887366.100   125528924.461       -1214.840          33.750                                                                  
G20  23284339.720   122360030.582       -3540.785          39.250                                                                  
G14  22260076.400   116977491.949        2705.906          46.000    22260077.860    91151301.086        2108.387          48.750  
G18                                                                  23541605.320    96398943.414        -361.594          40.500  
R15  20020612.320   106984119.043        2529.539          56.500    20020616.880    83209851.996        1966.832          49.000  
R14  19969684.260   106449698.750       -1838.500          56.000                                                                  
R05  19229528.520   102792887.055        -860.895          55.250    19229534.660    79950013.426        -670.285          49.250  
R21  23337106.260   124881544.043       -3591.535          34.250    23337107.520    97130104.590       -2792.852          39.250  
C07  38932114.160   202729728.840         910.871          43.000    38932111.180   156763473.383         703.637          41.250  
C24  25098652.840   130695264.598       -3110.848          45.250                                                                  
C10  39147729.820   203852498.410        1278.145          43.500    39147730.260   157631679.402         988.594          37.500  
C32  22266072.080   115945320.387         487.902          52.250                                                                  
C23  23380923.620   121750637.059        2508.559          51.250                                                                  
C20  25293597.300   131710372.566        3157.281          36.500                                                                  
C25  22040903.160   114772766.156        -495.938          53.500                                                                  
C09  40349225.120   210108997.055       -1125.535          36.000    40349232.760   162469617.379        -869.457          43.000  
E07  27421649.760   144101734.410       -2991.574          35.750                                                                  
E27  24660752.060   129593123.723        1551.012          48.750    24660756.760    99298631.313        1188.207          49.250  
E12  27348427.800   143716970.090       -2634.668          38.500    27348428.800   110120783.902       -2018.367          40.500  
E30  25646923.300   134775509.320       -1477.574          45.250    25646928.200   103269544.941       -1131.492          48.500  
E19  24243137.960   127398545.180        1328.590          45.000    24243139.480    97617061.691        1017.574          46.500  
E21  27581854.200   144943618.410        3315.887          34.750    27581861.800   111060710.875        2542.098          36.500  
E11                                                                  25386326.960   102220207.023         -91.762          32.000  
> 2023 12 11 10 13 36.0000000  0 28       0.000000000000
G30  20861399.700   109627393.977        -832.023          51.500    20861400.440    85423955.770        -648.762          48.500  
G07  22385598.860   117637115.262       -2410.563          47.000    22385598.200    91665282.836       -1877.855          42.250  
G05  21445949.820   112699238.949       -1784.074          48.750    21445949.920    87817576.207       -1389.320          46.750  
G15  22469906.160   118080166.301        3339.172          39.250                                                                  
G13  20388410.340   107141861.676        1502.406          49.750                                                                  
G22  23346858.440   122688554.805        3305.688          41.000                                                                  
G20  23285013.780   122363571.473       -3541.730          38.750                                                                  
G14  22259561.200   116974785.375        2704.121          45.500    22259562.680    91149192.059        2108.125          48.750  
G18                                                                  23541693.240    96399303.090        -361.840          40.750  
R15  20020138.620   106981588.781        2529.098          56.250    20020143.920    83207884.016        1967.305          49.000  
R14  19970028.960   106451536.055       -1838.992          56.000                                                                  
R05  19229689.740   102793747.676        -862.594          55.250    19229695.260    79950682.801        -670.477          49.250  
R21  23337779.720   124885134.805       -3590.211          34.500    23337778.600    97132897.418       -2793.715          38.750  
C07  38931939.100   202728816.824         911.406          43.000    38931935.840   156762768.168         705.031          41.250  
C24  25099249.860   130698373.223       -3111.930          45.250                                                                  
C10  39147484.160   203851219.539        1277.578          43.500    39147484.580   157630690.523         989.863          37.500  
C32  22265978.120   115944831.961         487.539          52.250                                                                  
C23  23380441.980   121748128.305        2507.316          51.250                                                                  
C20  25292991.020   131707215.094        3156.484          36.750                                                                  
C25  22040998.300   114773261.793        -497.176          53.500                                                                  
C09  40349440.860   210110122.500       -1127.652          36.000    40349448.620   162470487.641        -869.703          43.250  
E11  25386349.580   133406153.9801       -118.594          33.000    25386348.780   102220295.883         -89.105          32.000  
E07  27422219.020   144104724.836       -2988.359          35.500                                                                  
E27  24660456.700   129591572.645        1550.297          48.750    24660461.560    99297442.820        1187.238          49.250  
E12  27348929.360   143719602.090       -2632.035          38.750    27348929.700   110122800.617       -2016.949          40.750  
E30  25647204.640   134776986.230       -1477.332          45.250    25647209.260   103270676.602       -1131.863          48.500  
E19  24242885.080   127397217.215        1327.383          45.000    24242886.720    97616044.168        1016.891          46.500  
E21  27581223.220   144940301.359        3313.785          34.750    27581230.480   111058169.250        2541.535          37.000  
> 2023 12 11 10 13 37.0000000  0 29       0.000000000000
G30  20861558.300   109628227.508        -833.566          51.750    20861559.020    85424605.266        -650.551          48.500  
G07  22386057.740   117639526.066       -2410.133          47.250    22386057.200    91667161.387       -1878.859          42.000  
G05  21446289.440   112701023.207       -1784.422          49.000    21446289.500    87818966.543       -1391.445          46.750  
G15  22469270.360   118076826.492        3339.102          39.000                                                                  
G13  20388124.300   107140359.094        1501.719          50.000                                                                  
G22  23346229.320   122685248.859        3305.941          41.250                                                                  
G27  23887827.140   125531377.1173      -1215.492          32.250                                                                  
G20  23285687.840   122367113.543       -3541.977          39.250                                                                  
G14  22259046.200   116972080.145        2704.313          45.500    22259047.840    91147084.094        2107.676          48.500  
G18                                                                  23541781.860    96399664.012        -360.590          40.750  
R15  20019665.220   106979060.160        2528.152          56.500    20019670.740    83205917.313        1965.254          49.250  
R14  19970373.920   106453375.066       -1839.625          56.000                                                                  
R05  19229850.980   102794610.012        -862.340          55.250    19229856.560    79951353.508        -671.621          49.500  
R21  23338451.800   124888727.020       -3590.352          35.500    23338451.420    97135691.348       -2794.324          38.750  
C07  38931764.160   202727905.871         911.145          43.000    38931760.700   156762063.773         703.617          41.000  
C24  25099846.800   130701482.945       -3109.461          45.250                                                                  
C10  39147238.920   203849941.664        1277.395          43.500    39147239.480   157629702.367         988.512          37.500  
C32  22265884.620   115944344.945         486.914          52.250                                                                  
C23  23379960.560   121745620.816        2506.625          51.500                                                                  
C20  25292385.420   131704058.684        3155.895          37.000                                                                  
C25  22041093.800   114773758.848        -497.824          53.500                                                                  
C09  40349657.360   210111248.859       -1125.832          36.000    40349665.040   162471358.629        -871.738          43.000  
E11  25386372.320   133406271.582        -118.637          32.750    25386371.120   102220386.043         -89.504          32.000  
E07  27422788.440   144107716.285       -2991.547          35.500                                                                  
E27  24660161.820   129590022.891        1549.441          48.750    24660166.660    99296255.344        1186.887          49.250  
E12  27349429.920   143722235.262       -2633.352          38.750    27349430.700   110124818.250       -2016.746          40.500  
E30  25647485.920   134778464.477       -1478.348          45.250    25647490.580   103271809.281       -1131.863          48.500  
E19  24242632.720   127395890.449        1325.797          45.250    24242634.320    97615027.543        1016.211          46.500  
E21  27580592.480   144936985.320        3312.875          34.750    27580599.540   111055628.375        2539.293          36.750  
> 2023 12 11 10 13 38.0000000  0 29       0.000000000000
G30  20861717.000   109629061.504        -835.246          51.750    20861717.860    85425255.129        -650.086          48.500  
G07  22386516.560   117641937.121       -2412.563          47.250    22386516.160    91669040.129       -1879.887          42.250  
G05  21446628.960   112702808.023       -1785.629          49.000    21446629.180    87820357.313       -1390.125          46.750  
G15  22468634.920   118073486.957        3338.715          39.250                                                                  
G13  20387838.520   107138856.984        1500.984          50.000                                                                  
G22  23345599.980   122681943.102        3305.488          41.250                                                                  
G27  23888058.440   125532593.605       -1216.859          31.750                                                                  
G20  23286362.080   122370655.781       -3542.270          39.000                                                                  
G14  22258531.300   116969375.289        2704.535          45.500    22258533.140    91144976.418        2107.148          48.500  
G18                                                                  23541869.600    96400025.402        -362.512          40.250  
R15  20019192.120   106976532.164        2527.332          56.250    20019197.980    83203951.098        1965.863          49.250  
R14  19970719.200   106455214.766       -1840.648          56.000                                                                  
R05  19230012.380   102795473.047        -863.676          55.250    19230018.260    79952024.758        -672.477          49.500  
R21  23339125.860   124892319.594       -3594.418          36.500    23339122.580    97138485.547       -2794.617          39.250  
C07  38931589.260   202726994.996         908.750          42.750    38931586.260   156761359.426         705.223          40.750  
C24  25100443.960   130704592.773       -3108.750          45.250                                                                  
C10  39146993.460   203848663.809        1275.773          43.500    39146994.000   157628714.266         988.035          37.500  
C32  22265791.160   115943858.406         486.738          52.250                                                                  
C23  23379479.180   121743113.617        2506.156          51.500                                                                  
C20  25291779.300   131700902.426        3155.566          37.000                                                                  
C25  22041189.380   114774256.352        -498.945          53.500                                                                  
C09  40349873.180   210112375.152       -1126.348          36.250    40349881.260   162472229.547        -871.844          43.000  
E11  25386393.940   133406389.578        -119.914          33.000    25386393.920   102220476.453         -91.211          32.000  
E07  27423357.820   144110707.652       -2992.340          35.500                                                                  
E27  24659866.940   129588473.508        1548.348          48.750    24659871.800    99295068.176        1187.188          49.250  
E12  27349930.560   143724868.645       -2633.395          38.750    27349931.740   110126836.031       -2017.656          40.500  
E30  25647767.140   134779943.070       -1479.809          45.250    25647771.880   103272942.234       -1132.613          48.500  
E19  24242380.360   127394563.945        1325.645          45.250    24242381.940    97614011.121        1016.027          46.500  
E21  27579961.220   144933669.293        3316.055          35.250    27579968.680   111053087.527        2539.699          36.750  
> 2023 12 11 10 13 39.0000000  0 29       0.000000000000
G30  20861875.720   109629895.957        -835.031          51.250    20861876.780    85425905.359        -650.836          48.250  
G07  22386975.340   117644348.422       -2412.125          47.000    22386974.960    91670919.059       -1880.551          42.000  
G05  21446968.720   112704593.402       -1786.375          48.750    21446968.820    87821748.508       -1391.895          46.500  
G15  22467999.600   118070147.672        3339.246          39.000                                                                  
G13  20387552.860   107137355.348        1501.738          49.500                                                                  
G22  23344971.700   122678637.555        3306.242          41.000                                                                  
G27  23888288.800   125533809.6952      -1216.977          30.250                                                                  
G20  23287036.020   122374198.191       -3543.426          39.000                                                                  
G14  22258016.880   116966670.801        2703.219          45.000    22258018.660    91142869.020        2108.039          48.250  
G18                                                                  23541958.480    96400387.273        -363.816          40.000  
R15  20018719.020   106974004.777        2526.621          56.250    20018725.060    83201985.348        1964.809          49.000  
R14  19971064.580   106457055.125       -1841.316          56.000                                                                  
R05  19230173.860   102796336.789        -864.227          55.000    19230179.980    79952696.539        -672.395          49.250  
R21  23339799.960   124895912.555       -3593.258          36.750    23339792.440    97141280.090       -2795.203          38.500  
C07  38931414.440   202726084.184         910.438          43.000    38931411.420   156760655.105         704.902          41.250  
C24  25101041.140   130707702.703       -3112.520          45.250                                                                  
C10  39146748.280   203847386.039        1277.625          43.500    39146748.900   157627726.215         987.723          37.250  
C32  22265697.780   115943372.305         485.914          52.250                                                                  
C23  23378997.860   121740606.703        2504.984          51.500                                                                  
C20  25291173.320   131697746.242        3154.297          37.000                                                                  
C25  22041285.040   114774754.305        -497.695          53.500                                                                  
C09  40350089.640   210113501.367       -1130.316          36.500    40350097.980   162473100.391        -872.617          43.250  
E11  25386417.100   133406508.027        -120.473          33.000                                                                  
E07  27423926.640   144113699.082       -2991.582          35.250                                                                  
E27  24659571.980   129586924.469        1547.418          48.750    24659576.980    99293881.246        1187.121          49.000  
E12  27350432.780   143727502.230       -2632.004          38.750    27350433.020   110128853.988       -2019.688          40.500  
E30  25648048.640   134781422.004       -1480.148          45.250    25648053.340   103274075.438       -1134.379          48.250  
E19  24242127.880   127393237.656        1326.055          45.250    24242129.520    97612994.875        1016.871          46.500  
E21  27579330.140   144930353.273        3314.543          35.250    27579337.400   111050546.688        2542.523          36.750  
> 2023 12 11 10 13 40.0000000  0 29       0.000000000000
G30  20862034.720   109630731.523        -835.563          51.500    20862035.760    85426556.453        -651.820          48.500  
G07  22387434.460   117646760.617       -2412.328          47.250    22387434.000    91672798.699       -1878.344          41.750  
G05  21447308.660   112706379.973       -1786.859          49.000    21447309.020    87823140.648       -1392.598          46.500  
G15  22467364.840   118066809.297        3338.883          39.500    22467364.660    92000104.457        2600.145          34.000  
G13  20387267.340   107135854.820        1500.363          49.750                                                                  
G22  23344342.820   122675332.840        3303.988          41.000                                                                  
G27  23888519.260   125535017.4963      -1217.781          29.750                                                                  
G20  23287710.240   122377741.465       -3543.184          39.000                                                                  
G14  22257502.520   116963967.332        2702.699          45.250    22257503.880    91140762.426        2107.430          48.000  
G18                                                                  23542046.700    96400750.137        -363.395          40.000  
R15  20018246.160   106971478.668        2526.570          56.250    20018252.360    83200020.598        1964.602          49.000  
R14  19971410.220   106458896.793       -1841.035          56.250                                                                  
R05  19230335.540   102797201.883        -865.227          55.000    19230341.800    79953369.398        -672.535          49.250  
R21  23340473.220   124899506.660       -3592.973          36.250    23340464.080    97144075.516       -2795.832          38.500  
C07  38931239.680   202725174.074         910.363          43.000    38931236.620   156759951.363         703.246          41.250  
C24  25101638.460   130710813.414       -3110.133          45.250                                                                  
C10  39146502.700   203846108.922        1277.441          43.500    39146502.680   157626738.652         988.496          37.250  
C32  22265604.640   115942887.305         484.133          52.250                                                                  
C23  23378516.860   121738100.727        2505.445          51.500                                                                  
C20  25290567.660   131694590.816        3156.195          37.250                                                                  
C25  22041380.780   114775253.336        -499.004          53.500                                                                  
C09  40350305.560   210114628.188       -1127.539          36.000    40350314.140   162473971.699        -870.094          43.250  
E11  25386439.920   133406627.617        -119.449          33.000    25386439.540   102220657.7851        -90.188          32.000  
E07  27424496.440   144116691.180       -2991.758          35.250    27424497.840   110427076.7771      -2290.988          32.000  
E27  24659277.260   129585376.441        1548.273          48.750    24659282.360    99292695.098        1186.902          49.000  
E12  27350933.560   143730136.699       -2638.590          38.750    27350934.220   110130872.590       -2017.906          40.500  
E30  25648330.460   134782901.926       -1482.215          45.250    25648335.000   103275209.414       -1133.285          48.250  
E19  24241875.460   127391912.285        1325.199          45.250    24241877.360    97611979.336        1015.527          46.500  
E21  27578699.080   144927037.871        3319.117          34.750    27578706.480   111048006.301        2543.352          36.750  
> 2023 12 11 10 13 41.0000000  0 29       0.000000000000
G30  20862193.780   109631567.480        -836.855          51.750    20862195.060    85427207.852        -652.277          48.750  
G07  22387893.780   117649172.988       -2412.930          47.500    22387892.880    91674678.465       -1879.188          42.000  
G05  21447648.840   112708167.043       -1787.207          49.000    21447649.040    87824533.176       -1391.531          46.500  
G15  22466729.820   118063471.102        3338.176          40.250    22466730.620    91997503.293        2605.543          34.000  
G13  20386981.780   107134354.684        1500.457          50.000                                                                  
G22  23343713.720   122672028.289        3306.816          41.250                                                                  
G27  23888748.600   125536220.8443      -1216.273          27.500                                                                  
G20  23288384.420   122381284.793       -3542.605          39.250                                                                  
G14  22256988.040   116961264.160        2703.250          45.750    22256989.500    91138656.051        2105.820          48.250  
G18                                                                  23542135.300    96401113.375        -361.855          40.000  
R15  20017773.520   106968953.137        2525.168          56.250    20017779.980    83198056.297        1964.414          49.000  
R14  19971755.900   106460739.047       -1842.750          56.250                                                                  
R05  19230497.600   102798067.621        -865.980          55.000    19230503.800    79954042.754        -673.434          49.250  
R21  23341148.200   124903101.082       -3594.637          35.750    23341136.740    97146871.156       -2794.820          38.250  
C07  38931064.660   202724263.961         912.000          42.750    38931061.760   156759247.598         703.879          40.750  
C24  25102235.740   130713924.145       -3110.184          45.250                                                                  
C10  39146257.440   203844831.785        1277.270          43.500    39146257.620   157625751.078         989.383          37.250  
C32  22265511.560   115942402.688         483.992          52.000                                                                  
C23  23378035.660   121735594.953        2504.824          51.500                                                                  
C20  25289961.440   131691435.422        3155.230          37.250                                                                  
C25  22041476.720   114775752.750        -499.844          53.250                                                                  
C09  40350521.960   210115754.793       -1124.883          36.000    40350530.600   162474842.895        -872.387          43.000  
E11  25386462.200   133406747.551        -120.246          32.750                                                                  
E07  27425064.460   144119683.191       -2993.719          34.750                                                                  
E27  24658982.760   129583828.707        1547.656          48.750    24658987.820    99291509.160        1185.406          49.000  
E12  27351434.600   143732771.277       -2634.949          39.000    27351435.680   110132891.285       -2019.750          40.250  
E30  25648612.320   134784382.137       -1481.422          45.250    25648616.600   103276343.590       -1133.367          48.500  
E19  24241623.400   127390587.063        1324.430          45.250    24241625.120    97610963.910        1014.031          46.500  
E21  27578068.420   144923722.398        3316.277          35.000    27578075.500   111045465.906        2538.043          37.250  
> 2023 12 11 10 13 42.0000000  0 28       0.000000000000
G30  20862352.840   109632403.496        -836.750          51.750    20862354.180    85427859.289        -651.824          48.750  
G07  22388352.900   117651585.211       -2413.984          47.500    22388351.800    91676558.109       -1881.773          42.000  
G05  21447988.860   112709954.262       -1786.484          49.000    21447989.080    87825925.797       -1392.043          46.500  
G15  22466094.800   118060132.758        3338.262          40.250    22466096.020    91994901.969        2598.590          34.250  
G13  20386696.400   107132854.617        1499.234          50.000                                                                  
G22  23343084.720   122668723.516        3304.082          41.500                                                                  
G20  23289058.980   122384827.949       -3544.098          39.750                                                                  
G14  22256473.820   116958560.953        2700.496          46.000    22256475.120    91136549.664        2106.574          48.250  
G18                                                                  23542223.720    96401476.801        -363.270          40.000  
R15  20017301.300   106966427.813        2524.703          56.250    20017307.540    83196092.152        1963.656          49.000  
R14  19972101.720   106462581.559       -1843.633          56.250                                                                  
R05  19230659.560   102798933.652        -866.676          55.000    19230666.400    79954716.336        -674.766          49.250  
R21  23341820.860   124906695.504       -3595.438          35.500    23341807.760    97149666.816       -2796.031          38.500  
C07  38930889.780   202723353.555         909.898          42.750    38930886.780   156758543.613         703.723          40.750  
C24  25102833.120   130717034.609       -3111.520          45.250                                                                  
C10  39146012.240   203843554.301        1276.855          43.500    39146012.300   157624763.230         988.008          36.750  
C32  22265418.460   115941918.133         483.449          52.000                                                                  
C23  23377554.580   121733089.082        2504.398          51.750                                                                  
C20  25289355.620   131688279.734        3155.148          37.500                                                                  
C25  22041572.540   114776252.199        -499.910          53.250                                                                  
C09  40350738.580   210116880.973       -1128.414          36.000    40350746.780   162475713.711        -870.402          43.000  
E11  25386486.200   133406867.504        -120.660          33.250    25386485.860   102220840.660         -92.156          32.000  
E07  27425634.100   144122674.820       -2990.449          34.750    27425636.680   110431659.535       -2296.313          32.750  
E27  24658688.020   129582280.918        1547.676          48.750    24658693.260    99290323.195        1184.465          49.000  
E12  27351935.880   143735405.680       -2634.566          39.000    27351936.940   110134909.844       -2015.902          40.250  
E30  25648893.760   134785862.297       -1481.363          45.250    25648898.340   103277477.730       -1134.332          48.500  
E19  24241371.100   127389261.707        1324.086          45.250    24241372.960    97609948.375        1014.223          46.500  
E21  27577437.460   144920406.625        3316.266          35.000    27577444.640   111042925.180        2541.117          37.000  
> 2023 12 11 10 13 43.0000000  0 28       0.000000000000
G30  20862511.980   109633240.012        -837.078          51.500    20862513.660    85428511.117        -653.676          48.750  
G07  22388811.840   117653997.703       -2412.234          47.250    22388811.040    91678437.980       -1879.844          42.000  
G05  21448329.060   112711742.070       -1788.059          48.750    21448329.260    87827318.906       -1394.203          46.500  
G15  22465459.600   118056794.707        3338.504          40.000    22465461.100    91992300.891        2599.180          34.250  
G13  20386411.200   107131355.043        1499.047          49.750                                                                  
G22  23342455.800   122665418.977        3303.918          41.000                                                                  
G20  23289732.960   122388371.277       -3543.777          39.000                                                                  
G14  22255959.520   116955858.152        2701.863          45.750    22255960.720    91134443.586        2106.508          48.500  
G18                                                                  23542312.140    96401840.719        -363.711          40.250  
R15  20016828.840   106963903.148        2524.059          56.250    20016835.260    83194128.520        1962.914          49.000  
R14  19972447.420   106464424.809       -1843.477          56.250                                                                  
R05  19230821.640   102799800.414        -867.430          55.250    19230827.920    79955390.480        -674.535          49.250  
R21  23342490.640   124910290.391       -3595.254          32.250    23342478.340    97152462.801       -2796.891          38.000  
C07  38930715.080   202722443.234         909.695          43.000    38930712.100   156757839.703         705.477          40.250  
C24  25103430.660   130720145.199       -3113.863          45.250                                                                  
C10  39145766.960   203842276.863        1276.496          43.500    39145766.620   157623775.480         988.426          37.000  
C32  22265325.400   115941434.055         483.746          52.000                                                                  
C23  23377073.300   121730583.516        2505.277          51.750                                                                  
C20  25288750.200   131685124.176        3156.910          37.500                                                                  
C25  22041668.580   114776752.129        -500.238          53.250                                                                  
C09  40350955.020   210118007.094       -1124.301          36.000    40350963.060   162476584.512        -871.012          42.500  
E11  25386509.560   133406988.051        -120.309          33.500    25386508.600   102220933.051         -89.836          32.250  
E07  27426202.820   144125666.449       -2992.563          34.500                                                                  
E27  24658393.480   129580733.523        1547.258          48.750    24658398.780    99289137.527        1186.586          49.000  
E12  27352437.300   143738040.293       -2634.078          39.000    27352438.280   110136928.578       -2018.824          40.250  
E30  25649175.840   134787342.809       -1481.492          45.250    25649180.080   103278612.156       -1133.758          48.500  
E19  24241119.200   127387936.629        1325.922          45.250    24241120.800    97608933.059        1013.719          46.500  
E21  27576806.640   144917090.766        3317.320          35.500    27576813.580   111040384.488        2539.793          37.000  
> 2023 12 11 10 13 44.0000000  0 28       0.000000000000
G30  20862671.220   109634076.910        -837.391          51.000    20862672.780    85429163.250        -651.871          49.000  
G07  22389271.000   117656410.391       -2415.000          46.500    22389270.120    91680318.000       -1881.695          41.750  
G05  21448669.460   112713530.379       -1788.723          48.250    21448669.400    87828712.387       -1394.191          46.500  
G15  22464824.760   118053456.836        3337.277          40.000    22464825.920    91989699.938        2597.449          34.000  
G13  20386126.040   107129855.867        1498.746          49.000                                                                  
G22  23341826.540   122662114.590        3303.664          41.000                                                                  
G20  23290407.420   122391914.738       -3543.074          38.500                                                                  
G14  22255445.340   116953155.641        2701.461          44.750    22255446.400    91132337.738        2105.574          48.000  
G18                                                                  23542400.800    96402205.090        -365.863          39.500  
R15  20016356.480   106961379.047        2522.875          56.250    20016362.220    83192165.332        1962.578          49.000  
R14  19972793.360   106466268.676       -1844.531          56.500                                                                  
R05  19230984.160   102800667.813        -868.035          55.000    19230990.360    79956065.137        -675.313          49.250  
R21  23343160.880   124913885.535       -3595.578          33.500    23343150.080    97155259.082       -2797.934          37.750  
C07  38930540.120   202721532.914         910.305          42.500    38930537.120   156757135.809         703.988          40.250  
C24  25104028.200   130723255.855       -3111.422          45.000                                                                  
C10  39145521.760   203840999.402        1277.559          43.500    39145521.980   157622787.680         986.313          36.750  
C32  22265232.400   115940950.363         482.191          51.500                                                                  
C23  23376592.160   121728078.176        2504.734          51.750                                                                  
C20  25288143.820   131681968.723        3155.215          37.500                                                                  
C25  22041764.760   114777252.438        -501.543          53.500                                                                  
C09  40351171.500   210119133.117       -1128.430          36.500    40351179.520   162477455.195        -872.715          42.250  
E11  25386533.100   133407108.918        -122.023          33.250                                                                  
E07  27426771.720   144128658.051       -2990.375          34.750    27426776.660   110436251.148       -2291.102          33.500  
E27  24658099.080   129579186.398        1546.223          48.750    24658104.340    99287952.090        1184.441          49.000  
E12  27352938.080   143740675.063       -2635.008          39.000    27352939.800   110138947.430       -2018.031          40.000  
E30  25649457.680   134788823.609       -1481.723          45.250    25649461.820   103279746.789       -1136.129          48.250  
E19  24240866.940   127386611.691        1324.695          45.250    24240868.740    97607917.852        1014.211          46.500  
E21  27576176.060   144913774.879        3313.340          34.500    27576182.360   111037843.758        2539.023          37.500  
> 2023 12 11 10 13 45.0000000  0 28       0.000000000000
G30  20862830.820   109634914.918        -837.773          50.750    20862832.220    85429816.234        -653.699          49.000  
G07  22389730.460   117658823.984       -2413.430          46.250    22389729.240    91682198.703       -1878.859          42.250  
G05  21449009.880   112715319.871       -1789.523          47.750    21449009.940    87830106.805       -1393.637          46.500  
G15  22464190.080   118050119.867        3336.711          40.000    22464191.260    91987099.734        2602.328          34.250  
G13  20385841.040   107128357.789        1497.859          49.000                                                                  
G22  23341198.080   122658811.066        3302.547          41.500                                                                  
G20  23291081.880   122395459.043       -3544.285          38.750                                                                  
G14  22254931.260   116950454.156        2700.727          44.750    22254932.280    91130232.684        2104.789          47.500  
G18                                                                  23542490.020    96402570.406        -365.199          40.250  
R15  20015884.340   106958856.230        2522.410          56.250    20015890.040    83190203.133        1962.668          48.750  
R14  19973139.560   106468113.867       -1845.473          56.500                                                                  
R05  19231146.540   102801536.559        -868.629          55.250    19231152.420    79956740.824        -675.934          49.250  
R21  23343830.320   124917481.883       -3597.953          33.000    23343822.640    97158056.164       -2797.984          38.000  
C07  38930365.280   202720623.352         909.168          43.000    38930362.500   156756432.469         704.250          40.500  
C24  25104625.560   130726367.266       -3110.984          45.750                                                                  
C10  39145276.540   203839722.648        1277.449          43.500    39145276.840   157621800.363         987.559          37.250  
C32  22265139.640   115940467.754         482.254          52.000                                                                  
C23  23376111.180   121725573.758        2504.758          52.000                                                                  
C20  25287537.660   131678813.953        3154.535          38.000                                                                  
C25  22041861.040   114777753.828        -500.969          54.000                                                                  
C09  40351388.300   210120259.719       -1126.063          35.750    40351395.840   162478326.379        -873.250          42.500  
E11  25386555.340   133407230.883        -122.102          33.250                                                                  
E07  27427342.040   144131650.328       -2993.016          34.500    27427346.340   110438543.922       -2292.254          33.250  
E27  24657804.720   129577640.301        1545.727          48.750    24657810.060    99286767.418        1184.820          48.750  
E12  27353440.100   143743310.652       -2635.977          39.250    27353441.280   110140966.883       -2017.652          40.250  
E30  25649739.980   134790305.406       -1482.996          45.500    25649743.800   103280882.191       -1135.953          48.250  
E19  24240615.080   127385287.648        1324.984          45.500    24240616.800    97606903.313        1015.266          46.250  
E21  27575544.860   144910459.660        3315.516          35.500    27575551.280   111035303.551        2541.605          37.250  
> 2023 12 11 10 13 46.0000000  0 28       0.000000000000
G30  20862990.300   109635752.723        -839.016          51.000    20862991.560    85430469.066        -654.590          48.750  
G07  22390189.720   117661237.156       -2413.934          46.500    22390188.640    91684079.113       -1880.020          41.750  
G05  21449350.220   112717109.258       -1789.918          47.750    21449350.460    87831501.133       -1394.523          46.250  
G15  22463555.520   118046782.496        3336.371          40.500    22463556.180    91984499.172        2598.129          33.500  
G13  20385556.120   107126859.531        1497.313          49.000                                                                  
G22  23340569.280   122655507.059        3302.875          41.500                                                                  
G20  23291755.760   122399002.840       -3544.148          38.500                                                                  
G14  22254417.400   116947752.383        2700.508          45.000    22254418.060    91128127.410        2103.285          47.500  
G18                                                                  23542579.000    96402935.648        -364.289          40.000  
R15  20015412.040   106956333.359        2522.273          56.250    20015418.040    83188240.910        1961.531          49.000  
R14  19973485.700   106469959.023       -1845.270          56.500                                                                  
R05  19231309.180   102802405.328        -869.652          55.000    19231315.440    79957416.531        -675.059          49.500  
R21  23344499.960   124921077.891       -3594.977          34.000    23344495.000    97160853.070       -2797.500          38.000  
C07  38930190.880   202719713.180         909.430          43.000    38930187.040   156755728.660         703.945          40.000  
C24  25105222.980   130729478.125       -3111.797          45.250                                                                  
C10  39145031.280   203838445.293        1277.344          43.500    39145031.920   157620812.637         985.625          36.500  
C32  22265046.860   115939984.953         481.406          51.750                                                                  
C23  23375630.140   121723068.969        2503.656          51.750                                                                  
C20  25286932.340   131675658.648        3153.047          38.250                                                                  
C25  22041957.320   114778255.012        -502.820          53.750                                                                  
C09  40351603.300   210121385.566       -1127.578          35.500    40351611.820   162479196.949        -871.090          42.500  
E11  25386578.360   133407352.609        -120.570          34.000                                                                  
E07  27427910.540   144134641.922       -2990.602          34.750                                                                  
E27  24657510.660   129576093.891        1546.148          49.000    24657515.780    99285582.496        1184.652          48.750  
E12  27353942.600   143745945.813       -2635.898          39.250    27353942.600   110142986.023       -2019.375          40.500  
E30  25650021.980   134791786.887       -1481.969          45.500    25650025.680   103282017.340       -1135.281          48.250  
E19  24240363.160   127383963.180        1323.656          45.250    24240364.800    97605888.461        1013.910          46.500  
E21                                                                  27574920.380   111032762.793        2541.699          37.500  
> 2023 12 11 10 13 47.0000000  0 28       0.000000000000
G30  20863149.820   109636591.387        -839.941          51.500    20863150.940    85431122.586        -654.160          48.500  
G07  22390648.900   117663650.973       -2415.352          47.000    22390647.520    91685960.023       -1880.094          41.500  
G05  21449690.860   112718899.617       -1790.477          48.250    21449690.860    87832896.215       -1395.094          46.000  
G15  22462921.180   118043445.789        3336.441          41.250    22462920.360    91981899.156        2598.887          33.500  
G13  20385271.180   107125362.148        1496.637          49.500                                                                  
G22  23339940.720   122652203.668        3303.188          41.750                                                                  
G20  23292430.480   122402547.230       -3545.879          39.500                                                                  
G14  22253903.660   116945051.379        2701.684          46.000    22253903.980    91126022.734        2104.258          47.250  
G18                                                                  23542668.800    96403301.727        -367.180          40.000  
R15  20014940.240   106953811.527        2521.063          56.250    20014946.460    83186279.473        1961.168          49.000  
R14  19973831.900   106471805.262       -1846.813          56.500                                                                  
R05  19231471.780   102803275.215        -870.789          55.000    19231478.140    79958093.109        -677.133          49.500  
R21  23345170.640   124924674.730       -3597.906          33.750    23345166.420    97163650.613       -2797.125          37.750  
C07  38930015.960   202718803.465         910.039          43.000    38930012.040   156755025.227         704.418          39.750  
C24  25105820.520   130732589.496       -3112.484          45.500                                                                  
C10  39144785.980   203837168.359        1277.871          43.500    39144786.300   157619825.250         986.922          36.500  
C32  22264954.260   115939503.016         481.387          51.750                                                                  
C23  23375149.200   121720564.863        2503.602          51.750                                                                  
C20  25286326.880   131672503.859        3154.008          38.500                                                                  
C25  22042053.720   114778757.047        -503.207          53.750                                                                  
C09  40351819.820   210122511.754       -1127.648          35.000    40351828.320   162480067.785        -870.055          41.500  
E11  25386601.040   133407475.203        -126.820          33.000    25386601.800   102221316.242         -91.660          33.250  
E07  27428480.120   144137633.945       -2990.492          35.000                                                                  
E27  24657216.400   129574548.230        1545.004          49.250    24657221.640    99284398.172        1184.188          48.750  
E12  27354443.120   143748581.570       -2637.102          39.500    27354444.100   110145005.664       -2020.363          40.000  
E30  25650304.220   134793269.105       -1482.535          45.750    25650307.720   103283153.074       -1135.691          48.000  
E19  24240111.360   127382639.355        1322.598          45.500    24240112.900    97604874.117        1014.223          46.500  
E21                                                                  27574289.140   111030222.383        2538.051          37.250  
> 2023 12 11 10 13 48.0000000  0 28       0.000000000000
G30  20863309.320   109637429.594        -840.125          52.000    20863310.260    85431775.734        -653.953          48.500  
G07  22391107.920   117666064.109       -2414.844          47.500    22391106.720    91687840.348       -1881.457          41.500  
G05  21450031.540   112720689.609       -1792.102          49.000    21450031.420    87834291.020       -1395.387          46.000  
G15  22462286.040   118040108.430        3336.094          41.500    22462284.240    91979298.613        2601.492          33.250  
G13  20384986.220   107123864.309        1496.102          50.250                                                                  
G22  23339311.720   122648899.543        3301.898          42.750                                                                  
G20  23293104.720   122406090.891       -3545.301          40.250                                                                  
G14  22253389.760   116942349.816        2700.211          46.750    22253389.680    91123917.613        2104.871          47.250  
G18                                                                  23542758.440    96403667.535        -368.496          40.250  
R15  20014468.300   106951289.375        2520.434          56.250    20014474.280    83184317.801        1960.199          49.000  
R14  19974178.240   106473651.227       -1847.367          56.500                                                                  
R05  19231634.400   102804144.859        -871.961          55.250    19231640.880    79958769.500        -678.168          49.500  
R21                                                                  23345837.400    97166447.684       -2797.902          38.000  
C07  38929841.120   202717892.918         908.965          42.750    38929837.440   156754321.133         703.430          39.500  
C24  25106417.780   130735700.086       -3111.543          45.500                                                                  
C10  39144540.620   203835890.531        1276.652          43.500    39144540.740   157618837.184         986.957          37.250  
C32  22264861.440   115939020.613         481.156          51.750                                                                  
C23  23374667.960   121718060.137        2502.625          51.750                                                                  
C20  25285721.020   131669348.293        3156.082          38.500                                                                  
C25  22042150.040   114779258.605        -503.305          53.750                                                                  
C09  40352035.620   210123636.914       -1126.715          35.000    40352044.500   162480937.820        -870.477          42.000  
E11  25386624.040   133407597.367        -123.551          33.500    25386625.200   102221409.801         -95.719          32.500  
E07  27429049.440   144140625.023       -2990.984          35.500                                                                  
E27  24656922.200   129573002.012        1543.633          49.250    24656927.460    99283213.414        1183.699          48.750  
E12  27354945.480   143751216.641       -2634.613          39.250    27354945.440   110147024.723       -2020.309          40.250  
E30  25650586.040   134794750.750       -1485.082          45.500    25650589.640   103284288.355       -1137.281          48.000  
E19  24239859.180   127381314.875        1322.016          45.250    24239860.960    97603859.230        1012.586          46.500  
E21  27573651.960   144900532.8951       3315.270          35.000    27573657.980   111027681.238        2540.051          37.250  
> 2023 12 11 10 13 49.0000000  0 28       0.000000000000
G30  20863469.060   109638268.824        -840.895          52.250    20863469.920    85432429.664        -654.664          48.500  
G07  22391567.320   117668478.055       -2414.898          47.750    22391566.340    91689721.383       -1883.160          41.500  
G05  21450372.320   112722480.707       -1792.090          49.250    21450372.580    87835686.684       -1396.918          46.000  
G15  22461650.620   118036771.879        3336.957          41.750    22461649.560    91976698.641        2600.746          33.750  
G13  20384701.200   107122367.488        1495.016          50.500                                                                  
G22  23338682.940   122645596.180        3303.074          42.750                                                                  
G20  23293779.460   122409635.270       -3545.238          40.250                                                                  
G14  22252876.120   116939649.180        2699.652          47.000    22252875.800    91121813.211        2103.203          47.000  
G18                                                                  23542847.920    96404034.250        -366.223          40.000  
R15  20013996.500   106948768.445        2519.152          56.250    20014002.580    83182357.082        1958.262          49.000  
R14  19974524.420   106475498.449       -1848.363          56.500                                                                  
R05  19231797.160   102805015.781        -872.125          55.000    19231803.860    79959446.887        -678.840          49.500  
R21                                                                  23346510.940    97169245.539       -2799.492          38.000  
C07  38929666.260   202716983.000         909.473          43.500    38929663.200   156753617.512         702.008          40.000  
C24  25107015.340   130738811.324       -3113.523          45.250                                                                  
C10  39144295.280   203834613.320        1277.250          43.750    39144295.460   157617849.539         988.957          36.750  
C32  22264768.860   115938539.223         479.949          51.750                                                                  
C23  23374187.000   121715556.254        2503.160          51.750                                                                  
C20  25285115.220   131666193.379        3153.430          38.750                                                                  
C25  22042246.600   114779761.160        -503.355          54.000                                                                  
C09  40352252.520   210124762.551       -1125.105          35.500    40352260.900   162481808.219        -872.719          41.000  
E11  25386646.460   133407720.457        -124.496          33.750                                                                  
E07  27429617.940   144143616.676       -2990.438          35.000                                                                  
E27  24656628.320   129571456.723        1544.063          49.000    24656633.440    99282029.348        1183.520          49.000  
E12  27355447.040   143753852.445       -2636.695          39.500    27355447.040   110149044.340       -2021.988          40.500  
E30  25650868.400   134796233.289       -1481.797          45.750    25650871.720   103285424.332       -1137.324          48.000  
E19  24239607.340   127379991.215        1323.977          45.250    24239609.080    97602845.012        1012.684          46.500  
E21  27573021.240   144897217.086        3315.188          35.500    27573026.980   111025140.543        2537.512          37.500  
> 2023 12 11 10 13 50.0000000  0 28       0.000000000000
G30  20863628.840   109639108.750        -841.043          52.250    20863629.860    85433084.164        -655.582          48.250  
G07  22392026.780   117670892.492       -2415.875          47.750    22392025.840    91691602.746       -1882.871          41.500  
G05  21450713.300   112724272.598       -1791.711          49.000    21450713.340    87837082.961       -1397.535          46.000  
G15  22461015.920   118033435.824        3334.051          41.250    22461015.320    91974099.168        2596.844          33.750  
G13  20384416.440   107120871.387        1494.582          50.250                                                                  
G22  23338054.380   122642293.285        3301.188          42.750                                                                  
G20  23294454.100   122413180.078       -3545.988          40.250                                                                  
G14  22252362.500   116936949.176        2700.023          47.250    22252361.860    91119709.316        2102.371          47.000  
G18                                                                  23542937.800    96404401.637        -367.902          40.000  
R15  20013524.660   106946248.426        2518.664          56.250    20013531.060    83180397.066        1959.879          49.000  
R14  19974871.000   106477346.617       -1849.211          56.250                                                                  
R05  19231960.320   102805887.676        -873.336          55.000    19231966.980    79960125.027        -679.453          49.500  
R21                                                                  23347183.060    97172043.871       -2799.867          38.500  
C07  38929491.820   202716073.387         908.215          43.000    38929488.460   156752914.125         702.535          39.250  
C24  25107612.700   130741922.930       -3112.074          45.250                                                                  
C10  39144050.100   203833336.387        1277.273          43.500    39144050.620   157616862.145         987.934          37.000  
C32  22264676.420   115938058.527         480.188          51.500                                                                  
C23  23373706.220   121713052.891        2502.672          51.500                                                                  
C20  25284509.580   131663038.813        3152.996          39.000                                                                  
C25  22042343.180   114780264.406        -504.121          53.750                                                                  
C09  40352468.500   210125888.410       -1124.938          35.500    40352476.640   162482678.824        -870.895          41.250  
E11  25386670.020   133407844.395        -123.574          33.000                                                                  
E07  27430187.180   144146608.566       -2992.961          34.750                                                                  
E27  24656334.320   129569912.023        1543.137          49.250    24656339.360    99280845.746        1182.957          48.500  
E12  27355948.660   143756488.703       -2639.023          39.500    27355948.820   110151064.367       -2020.066          40.250  
E30  25651150.700   134797716.430       -1482.777          45.500    25651153.960   103286560.742       -1136.816          47.750  
E19  24239355.480   127378668.004        1322.281          45.250    24239357.300    97601831.133        1012.266          46.250  
E21  27572390.740   144893901.484        3312.750          35.250    27572396.000   111022600.035        2540.000          37.000  
> 2023 12 11 10 13 51.0000000  0 28       0.000000000000
G30  20863788.640   109639949.090        -841.383          52.250    20863789.760    85433738.980        -654.789          48.500  
G07  22392486.060   117673307.133       -2415.797          47.500    22392484.800    91693484.289       -1882.969          41.500  
G05  21451054.400   112726065.004       -1793.371          49.250    21451054.420    87838479.637       -1397.934          46.250  
G15  22460380.840   118030099.996        3334.594          41.500    22460380.620    91971499.816        2599.945          34.500  
G13  20384131.800   107119375.703        1494.578          50.250                                                                  
G22  23337425.520   122638990.547        3301.484          42.750                                                                  
G20  23295128.860   122416725.016       -3548.988          40.250                                                                  
G14  22251848.720   116934249.473        2699.277          47.250    22251848.120    91117605.652        2103.188          47.000  
G18                                                                  23543027.820    96404769.488        -367.809          39.500  
R15  20013053.280   106943728.992        2518.527          56.250    20013058.880    83178437.516        1959.668          49.000  
R14  19975217.940   106479195.430       -1849.688          56.500                                                                  
R05  19232123.460   102806760.215        -873.383          55.000    19232129.960    79960803.672        -680.371          49.500  
R21  23347855.600   124939101.0433      -3601.215          34.750    23347855.660    97174842.609       -2798.035          36.750  
C07  38929317.120   202715163.816         908.793          43.000    38929313.880   156752210.836         707.859          39.750  
C24  25108210.520   130745034.582       -3113.191          45.500                                                                  
C10  39143805.060   203832059.469        1276.793          43.750    39143804.820   157615874.738         988.855          37.250  
C32  22264584.140   115937578.234         478.551          51.500                                                                  
C23  23373225.400   121710549.773        2501.938          51.750                                                                  
C20  25283903.560   131659884.313        3154.105          38.250                                                                  
C25  22042439.920   114780768.055        -504.469          53.750                                                                  
C09  40352684.580   210127014.105       -1127.930          35.500    40352692.800   162483549.301        -872.281          41.250  
E11  25386694.480   133407968.652        -127.313          33.750                                                                  
E07  27430757.080   144149600.484       -2992.180          35.000                                                                  
E27  24656040.460   129568367.637        1543.301          49.250    24656045.420    99279662.379        1182.406          48.750  
E12  27356450.520   143759125.145       -2637.789          38.750    27356450.520   110153084.480       -2020.762          39.500  
E30  25651433.080   134799199.855       -1481.836          45.750    25651436.220   103287697.402       -1137.137          48.000  
E19  24239103.580   127377345.020        1321.613          45.500    24239105.520    97600817.410        1014.430          46.500  
E21  27571759.680   144890585.785        3312.520          35.250    27571764.940   111020059.422        2539.438          37.250  
> 2023 12 11 10 13 52.0000000  0 28       0.000000000000
G30  20863948.860   109640790.203        -841.430          52.250    20863949.680    85434394.387        -655.875          48.750  
G07  22392945.640   117675722.328       -2414.695          47.750    22392944.500    91695366.230       -1884.320          42.750  
G05  21451395.680   112727858.277       -1795.230          49.000    21451395.600    87839876.988       -1398.957          46.500  
G15  22459746.200   118026764.719        3334.383          42.000    22459745.860    91968900.879        2598.199          34.750  
G13  20383847.200   107117880.797        1494.539          50.250                                                                  
G22  23336797.020   122635688.324        3301.738          42.750                                                                  
G20  23295803.620   122420270.480       -3543.801          40.250                                                                  
G14  22251335.320   116931550.461        2698.340          47.500    22251334.780    91115502.531        2102.852          47.750  
G18                                                                  23543118.280    96405137.988        -370.430          40.250  
R15  20012582.200   106941210.473        2517.387          56.250    20012588.180    83176478.664        1958.441          49.000  
R14  19975565.260   106481045.242       -1850.246          56.500                                                                  
R05  19232286.940   102807633.762        -873.871          55.250    19232293.360    79961483.090        -680.949          49.250  
R21                                                                  23348529.360    97177641.875       -2798.516          37.750  
C07  38929142.620   202714254.602         908.840          43.250    38929139.240   156751507.766         702.324          40.250  
C24  25108808.020   130748146.664       -3111.836          45.750                                                                  
C10  39143560.140   203830782.859        1276.125          44.250    39143560.400   157614887.582         988.750          37.250  
C32  22264492.000   115937098.707         479.305          51.750                                                                  
C23  23372744.860   121708047.254        2502.227          51.750                                                                  
C20  25283297.860   131656730.223        3155.121          39.000                                                                  
C25  22042536.840   114781272.457        -504.547          54.250                                                                  
C09  40352901.320   210128140.086       -1127.719          36.250    40352908.920   162484419.953        -870.672          41.000  
E11  25386717.740   133408093.676        -127.559          33.250    25386719.820   102221787.1171        -97.602          34.000  
E07  27431326.340   144152592.609       -2991.301          34.250                                                                  
E27  24655746.760   129566823.902        1542.188          49.000    24655751.700    99278479.539        1182.250          48.750  
E12  27356952.040   143761762.063       -2638.449          40.000    27356952.320   110155104.992       -2021.051          40.750  
E30  25651715.680   134800683.949       -1484.531          45.500    25651718.600   103288834.547       -1138.094          48.000  
E19  24238851.900   127376022.566        1320.961          45.250    24238853.880    97599804.094        1012.535          46.250  
E21  27571129.320   144887270.504        3317.609          35.000    27571134.020   111017519.148        2540.465          37.750  
> 2023 12 11 10 13 53.0000000  0 28       0.000000000000
G30  20864108.940   109641632.180        -842.984          52.250    20864109.700    85435050.457        -657.020          48.750  
G07  22393405.200   117678138.172       -2415.480          47.500    22393404.140    91697248.711       -1881.871          42.250  
G05  21451737.040   112729652.508       -1794.918          49.250    21451736.860    87841275.090       -1398.949          46.750  
G15  22459111.620   118023430.078        3332.676          41.750    22459111.040    91966302.457        2598.203          35.250  
G13  20383562.740   107116386.758        1493.387          50.250                                                                  
G22  23336168.640   122632386.695        3301.336          42.500                                                                  
G20  23296478.260   122423816.473       -3546.410          40.000                                                                  
G14  22250822.040   116928852.227        2697.477          47.750    22250821.380    91113400.008        2102.379          47.750  
G18                                                                  23543208.280    96405507.285        -369.027          40.250  
R15  20012111.200   106938692.969        2516.836          56.500    20012116.860    83174520.602        1958.746          49.000  
R14  19975912.380   106482896.102       -1851.184          56.750                                                                  
R05  19232450.700   102808508.418        -875.113          55.500    19232457.040    79962163.379        -680.508          49.500  
R21  23349204.860   124946350.7622      -3600.273          33.000    23349201.360    97180441.664       -2799.418          38.500  
C07  38928967.860   202713345.859         908.426          43.250    38928964.540   156750805.047         703.176          39.750  
C24  25109406.040   130751259.250       -3113.531          45.750                                                                  
C10  39143314.900   203829506.680        1275.059          44.000    39143314.760   157613900.789         984.855          37.250  
C32  22264400.120   115936620.031         478.773          51.750                                                                  
C23  23372264.420   121705545.398        2500.953          51.750                                                                  
C20  25282692.680   131653576.605        3153.570          38.750                                                                  
C25  22042633.880   114781777.695        -505.031          54.000                                                                  
C09  40353117.740   210129266.328       -1124.172          36.000    40353125.100   162485290.859        -870.066          41.500  
E11  25386741.900   133408219.473        -129.723          33.750    25386743.660   102221883.555         -93.320          33.250  
E07  27431896.460   144155585.184       -2991.777          35.250                                                                  
E27  24655453.260   129565280.938        1542.367          49.250    24655458.040    99277297.254        1181.039          48.750  
E12  27357454.280   143764399.598       -2635.688          40.000    27357454.260   110157125.953       -2019.734          40.250  
E30  25651998.320   134802168.758       -1483.777          45.750    25652001.240   103289972.270       -1137.660          48.000  
E19  24238600.300   127374700.754        1321.488          45.500    24238602.360    97598791.289        1013.699          46.500  
E21  27570498.540   144883955.574        3315.027          35.000    27570503.060   111014979.141        2540.539          37.750  
> 2023 12 11 10 13 54.0000000  0 28       0.000000000000
G30  20864269.140   109642474.219        -842.824          52.000    20864270.160    85435706.590        -657.680          48.750  
G07  22393864.740   117680553.883       -2417.504          47.250    22393863.720    91699131.078       -1882.855          42.250  
G05  21452078.420   112731446.906       -1795.934          49.250    21452078.380    87842673.328       -1398.398          46.750  
G15  22458477.160   118020095.301        3334.453          41.500    22458476.820    91963703.938        2597.324          35.500  
G13  20383278.420   107114892.781        1492.633          50.000                                                                  
G22  23335540.220   122629084.887        3302.023          42.250                                                                  
G20  23297152.300   122427362.273       -3546.680          40.000                                                                  
G14  22250308.800   116926153.953        2696.738          47.750    22250307.700    91111297.449        2102.336          48.000  
G18                                                                  23543298.340    96405876.750        -370.664          40.750  
R15  20011639.880   106936175.680        2516.480          56.500    20011646.380    83172562.707        1957.215          49.250  
R14  19976259.800   106484747.215       -1851.898          56.750                                                                  
R05  19232614.400   102809383.355        -875.609          55.250    19232620.660    79962843.879        -681.262          49.500  
R21  23349878.140   124949951.008       -3599.504          34.000    23349874.120    97183241.520       -2800.707          38.500  
C07  38928793.400   202712436.801         908.422          42.750    38928789.760   156750102.137         703.414          40.500  
C24  25110003.980   130754371.547       -3113.539          45.750                                                                  
C10  39143069.720   203828230.230        1275.777          43.750    39143069.660   157612913.750         988.105          38.000  
C32  22264308.120   115936141.430         478.000          51.250                                                                  
C23  23371783.800   121703043.457        2501.945          51.250                                                                  
C20  25282086.880   131650422.734        3152.336          39.000                                                                  
C25  22042730.840   114782282.988        -506.172          53.750                                                                  
C09  40353333.720   210130392.172       -1128.012          36.000    40353341.220   162486161.410        -868.434          41.750  
E11  25386766.360   133408345.441        -126.777          33.750                                                                  
E07  27432465.860   144158577.414       -2992.266          34.750                                                                  
E27  24655159.660   129563737.926        1542.379          49.250    24655164.320    99276114.957        1182.336          48.750  
E12  27357955.460   143767036.934       -2637.613          39.750    27357956.080   110159146.746       -2021.762          40.250  
E30  25652280.980   134803653.516       -1484.465          46.000    25652283.780   103291109.934       -1138.570          48.000  
E19  24238348.780   127373378.816        1321.602          45.500    24238350.780    97597778.355        1011.219          46.500  
E21  27569867.000   144880640.270        3312.898          35.250    27569872.000   111012438.828        2540.207          37.500  
> 2023 12 11 10 13 55.0000000  0 28       0.000000000000
G30  20864429.420   109643316.609        -842.977          52.000    20864430.520    85436363.008        -657.121          49.000  
G07  22394324.360   117682969.719       -2416.598          47.500    22394323.320    91701013.547       -1881.301          42.750  
G05  21452419.680   112733241.762       -1795.973          49.000    21452420.180    87844071.898       -1399.129          46.750  
G15  22457842.260   118016760.734        3333.996          41.250    22457843.120    91961105.594        2598.801          35.750  
G13  20382994.060   107113399.184        1492.055          49.750                                                                  
G22  23334912.060   122625783.164        3301.383          42.000                                                                  
G20  23297827.580   122430908.145       -3546.246          39.750                                                                  
G14  22249795.460   116923455.941        2696.832          47.750    22249794.560    91109195.113        2102.039          48.000  
G18                                                                  23543388.820    96406246.633        -372.422          40.750  
R15  20011168.660   106933658.945        2516.137          56.500    20011175.400    83170605.250        1957.262          49.000  
R14  19976607.140   106486598.895       -1852.852          57.000                                                                  
R05  19232778.240   102810258.906        -876.656          55.500    19232784.420    79963524.867        -682.148          49.000  
R21                                                                  23350546.640    97186041.641       -2800.645          38.500  
C07  38928618.580   202711527.719         909.383          43.000    38928615.160   156749399.164         702.941          41.250  
C24  25110601.580   130757483.879       -3113.023          45.750                                                                  
C10  39142824.600   203826953.668        1275.801          44.000    39142824.560   157611926.602         987.059          38.000  
C32  22264216.220   115935663.164         477.063          51.500                                                                  
C23  23371303.480   121700541.695        2500.516          51.750                                                                  
C20  25281481.100   131647268.879        3154.141          38.750                                                                  
C25  22042827.980   114782788.613        -506.906          54.250                                                                  
C09  40353550.140   210131517.801       -1127.945          36.250    40353557.620   162487031.836        -870.953          41.750  
E11  25386790.720   133408471.738        -123.688          34.500    25386791.640   102222076.8201        -98.617          33.500  
E07  27433035.600   144161569.508       -2992.570          35.500                                                                  
E27  24654866.100   129562195.160        1541.473          49.500    24654870.640    99274932.844        1180.875          48.750  
E12  27358457.340   143769674.395       -2638.523          39.000    27358457.780   110161167.719       -2022.504          40.250  
E30  25652563.700   134805138.539       -1485.727          46.000    25652566.280   103292247.820       -1138.000          48.000  
E19  24238097.120   127372057.008        1320.184          45.250    24238099.280    97596765.559        1012.297          46.250  
E21  27569236.480   144877324.824        3314.027          35.500    27569241.100   111009898.441        2539.832          37.500  
> 2023 12 11 10 13 56.0000000  0 28       0.000000000000
G30  20864590.000   109644160.215        -843.813          52.250    20864591.080    85437020.367        -657.266          49.250  
G07  22394784.280   117685386.555       -2416.680          47.750    22394783.260    91702896.777       -1882.723          42.750  
G05  21452761.480   112735037.922       -1796.152          49.000    21452762.040    87845471.504       -1400.008          46.750  
G15  22457207.600   118013427.133        3335.012          41.750    22457208.940    91958507.973        2598.668          35.500  
G13  20382710.080   107111906.789        1492.004          50.000                                                                  
G22  23334284.000   122622482.434        3300.531          42.500                                                                  
G20  23298502.100   122434454.953       -3548.160          40.250                                                                  
G14  22249282.420   116920759.063        2697.355          48.250    22249281.340    91107093.652        2101.660          48.250  
G18                                                                  23543479.440    96406617.566        -370.719          40.250  
R15  20010697.920   106931143.625        2515.227          56.500    20010703.840    83168648.891        1956.395          49.000  
R14  19976954.980   106488452.012       -1854.008          57.000                                                                  
R05  19232942.400   102811135.934        -877.680          55.250    19232948.380    79964206.996        -683.930          49.250  
R21  23351230.880   124957198.4263      -3601.344          32.750    23351220.420    97188842.625       -2802.637          38.750  
C07  38928444.200   202710619.441         909.527          42.750    38928441.040   156748696.832         702.574          41.000  
C24  25111199.420   130760597.047       -3116.016          45.500                                                                  
C10  39142579.500   203825677.883        1275.688          44.000    39142580.300   157610940.105         989.660          38.000  
C32  22264124.660   115935186.098         475.770          51.500                                                                  
C23  23370823.260   121698040.965        2501.262          51.500                                                                  
C20  25280875.280   131644115.863        3153.344          38.250                                                                  
C25  22042925.260   114783295.426        -507.680          54.000                                                                  
C09  40353766.440   210132644.059       -1127.863          36.500    40353773.860   162487902.750        -870.281          41.250  
E11  25386815.700   133408599.223        -126.316          34.000    25386815.860   102222174.492        -100.703          33.250  
E07  27433604.440   144164562.391       -2993.832          35.500                                                                  
E27  24654572.820   129560653.523        1541.145          49.250    24654577.260    99273751.582        1181.004          48.750  
E12  27358960.520   143772312.828       -2636.898          38.750    27358959.800   110163189.328       -2021.320          39.750  
E30  25652846.560   134806624.629       -1485.898          46.000    25652849.000   103293386.512       -1139.492          47.750  
E19  24237845.940   127370736.203        1319.594          45.500    24237847.820    97595753.508        1011.996          46.000  
E21  27568605.600   144874010.199        3314.262          35.250    27568610.360   111007358.629        2538.547          37.500  
> 2023 12 11 10 13 57.0000000  0 28       0.000000000000
G30  20864750.640   109645004.422        -844.117          52.750    20864751.760    85437678.191        -657.289          49.250  
G07  22395244.380   117687803.789       -2418.375          48.250    22395243.340    91704780.344       -1885.246          42.750  
G05  21453103.240   112736834.785       -1797.398          49.500    21453103.900    87846871.660       -1400.082          47.000  
G15  22456573.540   118010093.941        3332.250          42.000    22456574.660    91955910.691        2595.836          35.500  
G13  20382426.200   107110415.020        1490.715          50.750                                                                  
G22  23333656.240   122619182.020        3300.410          43.000                                                                  
G20  23299176.800   122438002.070       -3547.750          40.500                                                                  
G14  22248769.440   116918062.699        2695.367          48.500    22248768.400    91104992.578        2099.965          48.250  
G18                                                                  23543570.080    96406989.090        -372.988          40.250  
R15  20010227.520   106928629.074        2514.066          56.500    20010233.580    83166693.133        1955.805          49.250  
R14  19977302.620   106490305.969       -1854.402          57.000                                                                  
R05  19233106.340   102812013.836        -879.137          55.500    19233112.320    79964889.809        -684.383          49.250  
R21  23351903.100   124960791.7113      -3601.133          32.000    23351895.540    97191644.070       -2800.340          39.000  
C07  38928269.980   202709711.387         907.184          42.750    38928266.820   156747994.672         703.066          41.250  
C24  25111797.460   130763710.496       -3112.969          45.500                                                                  
C10  39142334.540   203824402.277        1275.035          44.000    39142335.340   157609953.699         986.938          37.750  
C32  22264033.220   115934709.633         474.754          51.500                                                                  
C23  23370343.060   121695540.668        2500.195          51.500                                                                  
C20  25280269.740   131640963.129        3150.996          38.250                                                                  
C25  22043022.800   114783802.824        -508.199          54.000                                                                  
C09  40353982.280   210133770.453       -1125.703          36.000    40353989.980   162488773.730        -871.816          41.250  
E11  25386840.580   133408727.297        -132.043          34.500    25386840.240   102222272.629        -101.535          33.000  
E07  27434174.500   144167555.406       -2993.629          35.250                                                                  
E27  24654279.560   129559112.383        1540.289          49.250    24654283.920    99272570.711        1180.121          48.500  
E12  27359462.320   143774951.578       -2640.766          39.000    27359462.060   110165211.238       -2023.203          39.750  
E30  25653129.160   134808111.234       -1486.723          46.000    25653131.900   103294525.598       -1139.871          47.750  
E19  24237594.840   127369415.789        1320.602          45.500    24237596.640    97594741.762        1011.820          46.000  
E21  27567975.180   144870695.645        3317.949          35.500    27567979.680   111004818.945        2537.000          37.250  
> 2023 12 11 10 13 58.0000000  0 28       0.000000000000
G30  20864911.360   109645849.008        -844.430          52.750    20864912.480    85438336.305        -658.820          49.250  
G07  22395704.420   117690221.172       -2416.906          48.000    22395703.220    91706664.027       -1883.434          42.750  
G05  21453445.080   112738632.109       -1798.250          49.250    21453446.220    87848272.172       -1402.285          47.000  
G15  22455939.000   118006760.910        3333.359          42.000    22455939.840    91953313.559        2597.121          35.250  
G13  20382142.540   107108923.625        1491.242          50.500                                                                  
G22  23333028.040   122615881.719        3300.434          43.000                                                                  
G20  23299852.300   122441549.285       -3546.973          40.500                                                                  
G14  22248256.300   116915366.602        2696.063          48.750    22248255.460    91102891.734        2100.512          48.250  
G18                                                                  23543660.220    96407361.000        -372.238          39.750  
R15  20009757.060   106926115.051        2513.551          56.500    20009762.840    83164737.785        1954.977          49.250  
R14  19977650.500   106492160.496       -1855.398          57.000                                                                  
R05  19233270.540   102812892.340        -879.059          55.250    19233276.560    79965573.098        -682.871          49.250  
R21  23352575.460   124964393.8522      -3602.977          31.500    23352567.580    97194445.727       -2801.652          38.750  
C07  38928095.500   202708803.301         907.992          42.500    38928092.660   156747292.469         702.648          41.000  
C24  25112395.240   130766823.961       -3112.063          45.500                                                                  
C10  39142089.660   203823126.629        1274.656          44.000    39142089.520   157608967.293         985.059          37.750  
C32  22263941.840   115934233.527         475.766          51.250                                                                  
C23  23369862.960   121693040.563        2499.586          51.500                                                                  
C20  25279663.780   131637810.406        3153.516          38.000                                                                  
C25  22043120.280   114784310.590        -508.277          54.000                                                                  
C09  40354198.660   210134896.695       -1123.746          36.000    40354206.160   162489644.578        -872.250          41.250  
E11  25386866.020   133408855.703        -128.742          34.250    25386864.340   102222371.070         -98.301          33.250  
E07  27434744.560   144170548.281       -2992.719          35.000    27434751.340   110468360.7581      -2293.527          31.750  
E27  24653986.360   129557571.496        1540.527          49.500    24653990.700    99271390.039        1180.176          48.750  
E12  27359964.400   143777590.453       -2638.887          39.000    27359964.160   110167233.238       -2022.598          39.750  
E30  25653412.200   134809598.078       -1487.090          46.000    25653414.820   103295664.859       -1140.242          47.750  
E19  24237343.660   127368095.512        1318.199          45.500    24237345.480    97593730.133        1012.277          46.250  
E21  27567344.540   144867381.074        3312.449          35.500    27567348.660   111002279.191        2542.141          37.500  
> 2023 12 11 10 13 59.0000000  0 28       0.000000000000
G30  20865072.100   109646694.168        -846.090          51.750    20865073.320    85438994.883        -658.734          49.500  
G07  22396164.360   117692638.938       -2418.742          47.000    22396163.500    91708547.992       -1885.391          43.000  
G05  21453787.240   112740430.121       -1799.125          48.250    21453788.060    87849673.211       -1401.781          47.250  
G15  22455304.680   118003428.273        3331.605          40.750    22455306.420    91950716.645        2592.691          35.500  
G13  20381858.840   107107432.820        1490.621          49.750                                                                  
G22  23332400.080   122612581.766        3299.738          42.000                                                                  
G20  23300527.180   122445096.816       -3547.340          39.500                                                                  
G14  22247743.560   116912671.016        2695.750          47.750    22247742.680    91100791.262        2099.719          48.250  
G18                                                                  23543750.600    96407733.473        -371.883          39.750  
R15  20009286.780   106923601.781        2512.313          56.500    20009292.320    83162783.020        1954.477          49.250  
R14  19977998.460   106494015.805       -1855.711          57.000                                                                  
R05  19233434.980   102813771.676        -879.949          55.250    19233440.400    79966257.023        -683.789          49.000  
R21  23353246.800   124967996.5902      -3604.934          32.000    23353240.940    97197247.820       -2803.074          38.500  
C07  38927921.040   202707895.434         906.523          42.750    38927918.300   156746590.465         701.637          40.750  
C24  25112993.340   130769937.664       -3115.258          45.500                                                                  
C10  39141844.760   203821851.145        1273.992          44.000    39141844.680   157607981.020         984.336          37.000  
C32  22263850.620   115933758.008         474.871          51.250                                                                  
C23  23369383.020   121690540.875        2498.953          51.500                                                                  
C20  25279058.000   131634657.914        3154.648          38.250                                                                  
C25  22043217.880   114784818.918        -509.113          54.000                                                                  
C09  40354415.660   210136022.949       -1124.832          36.000    40354422.160   162490515.469        -870.160          40.750  
E11  25386890.320   133408984.742        -129.770          34.500                                                                  
E07  27435313.600   144173541.395       -2993.219          35.000                                                                  
E27  24653693.240   129556031.105        1539.797          49.500    24653697.580    99270209.734        1179.938          48.750  
E12  27360466.560   143780229.703       -2637.980          38.750    27360466.500   110169255.480       -2017.227          39.750  
E30  25653695.260   134811085.398       -1485.438          46.000    25653697.820   103296804.488       -1140.051          47.750  
E19  24237092.400   127366775.605        1320.781          45.500    24237094.300    97592718.758        1012.426          46.000  
E21  27566714.120   144864066.586        3311.152          35.250    27566718.000   110999739.527        2539.340          37.500  
> 2023 12 11 10 14 00.0000000  0 28       0.000000000000
G30  20865232.920   109647539.789        -846.121          51.500    20865234.240    85439653.801        -658.297          49.500  
G07  22396624.380   117695056.945       -2416.922          47.000    22396623.600    91710432.160       -1883.988          42.750  
G05  21454129.340   112742228.680       -1798.820          48.000    21454130.260    87851074.695       -1401.879          47.250  
G15  22454670.340   118000095.898        3330.652          40.500    22454672.540    91948120.027        2598.602          36.000  
G13  20381575.120   107105942.484        1490.156          49.250                                                                  
G22  23331772.020   122609282.023        3299.500          41.750                                                                  
G20  23301202.080   122448644.508       -3547.691          39.250                                                                  
G14  22247230.580   116909975.793        2694.816          47.500    22247229.780    91098691.090        2098.523          48.500  
G18                                                                  23543841.580    96408106.461        -373.922          39.500  
R15  20008816.740   106921089.133        2511.688          56.500    20008822.340    83160828.734        1955.109          49.250  
R14  19978346.800   106495871.766       -1856.863          57.000                                                                  
R05  19233599.720   102814651.707        -880.500          55.250    19233604.880    79966941.492        -685.848          49.250  
R21                                                                  23353913.620    97200050.211       -2802.664          38.500  
C07  38927746.760   202706987.625         907.262          42.750    38927743.900   156745888.484         700.688          40.750  
C24  25113591.120   130773051.473       -3113.734          45.500                                                                  
C10  39141600.000   203820575.707        1273.953          43.750    39141599.540   157606994.734         987.652          37.250  
C32  22263759.320   115933282.934         474.648          51.500                                                                  
C23  23368903.160   121688041.461        2498.203          51.500                                                                  
C20  25278452.880   131631505.520        3150.949          38.250                                                                  
C25  22043315.600   114785327.688        -508.723          54.000                                                                  
C09  40354631.860   210137149.168       -1125.227          36.250    40354638.520   162491386.352        -869.754          40.500  
E11  25386914.360   133409114.266        -128.254          34.250    25386913.640   102222567.0741        -97.777          33.500  
E07  27435884.080   144176534.418       -2992.297          35.250                                                                  
E27  24653400.080   129554491.063        1540.629          49.500    24653404.560    99269029.711        1180.211          48.500  
E12  27360969.180   143782869.074       -2638.648          39.000    27360968.660   110171277.895       -2024.730          39.750  
E30  25653978.120   134812573.063       -1487.145          46.000    25653980.840   103297944.391       -1140.953          47.750  
E19  24236841.260   127365455.938        1319.926          45.500    24236843.120    97591707.594        1011.105          46.000  
E21  27566082.700   144860752.105        3316.926          35.500    27566087.200   110997199.855        2537.363          37.250  
